s_id,s_nm,s_tenabili,s_wno,s_hh,s_pop,s_zno,s_addr,s_lat,s_lon,u_id,u_zno,u_wno,u_nm,u_addr,u_lat,u_lon,qneat_dist
S1-3-34,Periya Kasi Koil Kuppam,Tenable,3,430,1493,1,"Periya Kasi Koil Kuppam, Ward 3, THIRUVOTRIYUR, Chennai, Tamil Nadu, India",13.1987098,80.3178702,UPHC1,1,2,Kathivakkam,"Urban Primary Health Centre, Kathivakkam, No 3 392; Kathivakkam High Road; Ennore; Chennai  57",13.2161325,80.318177,2671.624352
S1-2-11,ChinnaKuppam,Untenable,2,239,786,1,"ChinnaKuppam, Ward 2, THIRUVOTRIYUR, Chennai, Tamil Nadu, India",13.2074625,80.3227456,UPHC1,1,2,Kathivakkam,"Urban Primary Health Centre, Kathivakkam, No 3 392; Kathivakkam High Road; Ennore; Chennai  57",13.2161325,80.318177,1552.803335
S1-2-24,PeriyaKuppam,Untenable,2,280,918,1,"PeriyaKuppam, Ward 2, THIRUVOTRIYUR, Chennai, Tamil Nadu, India",13.2121605,80.324166,UPHC1,1,2,Kathivakkam,"Urban Primary Health Centre, Kathivakkam, No 3 392; Kathivakkam High Road; Ennore; Chennai  57",13.2161325,80.318177,1096.379136
S1-2-21,KattuKuppam,Tenable,2,334,1225,1,"KattuKuppam, Ward 2, THIRUVOTRIYUR, Chennai, Tamil Nadu, India",13.2186677,80.3192216,UPHC1,1,2,Kathivakkam,"Urban Primary Health Centre, Kathivakkam, No 3 392; Kathivakkam High Road; Ennore; Chennai  57",13.2161325,80.318177,357.1422396
S1-1-4,Nettukuppam,Untenable,1,403,1457,1,"Nettukuppam, Ward 1, THIRUVOTRIYUR, Chennai, Tamil Nadu, India",13.2290209,80.3289701,UPHC1,1,2,Kathivakkam,"Urban Primary Health Centre, Kathivakkam, No 3 392; Kathivakkam High Road; Ennore; Chennai  57",13.2161325,80.318177,2343.963963
S1-5-63,Rajiv Gandhi Nagar,Tenable,5,147,574,1,"Rajiv Gandhi Nagar, Ward 5, THIRUVOTRIYUR, Chennai, Tamil Nadu, India",13.1835336,80.3080675,UPHC2,1,3,Ernavoor,"Urban Primary Health Centre, Ernavoor, No 63 Block Tsunami Quarters; All India Nagar; Ernavoor; Chennai  57",13.1895685,80.3039002,1552.608069
S1-5-71,Bharath Nagar,Tenable,5,552,2284,1,"Bharath Nagar, Ward 5, THIRUVOTRIYUR, Chennai, Tamil Nadu, India",13.1844996,80.311213,UPHC2,1,3,Ernavoor,"Urban Primary Health Centre, Ernavoor, No 63 Block Tsunami Quarters; All India Nagar; Ernavoor; Chennai  57",13.1895685,80.3039002,1810.955405
S1-4-50,Mullai Nagar,Tenable,4,100,383,1,"Mullai Nagar, Ward 4, THIRUVOTRIYUR, Chennai, Tamil Nadu, India",13.184737,80.3033778,UPHC2,1,3,Ernavoor,"Urban Primary Health Centre, Ernavoor, No 63 Block Tsunami Quarters; All India Nagar; Ernavoor; Chennai  57",13.1895685,80.3039002,822.7004022
S1-5-67,North Bharathiyar Nagar,Tenable,5,142,554,1,"North Bharathiyar Nagar, Ward 5, THIRUVOTRIYUR, Chennai, Tamil Nadu, India",13.1853709,80.3153915,UPHC2,1,3,Ernavoor,"Urban Primary Health Centre, Ernavoor, No 63 Block Tsunami Quarters; All India Nagar; Ernavoor; Chennai  57",13.1895685,80.3039002,2943.013486
S1-5-70,Bharathiyar Nagar,Tenable,5,600,2261,1,"Bharathiyar Nagar, Ward 5, THIRUVOTRIYUR, Chennai, Tamil Nadu, India",13.1853709,80.3153915,UPHC2,1,3,Ernavoor,"Urban Primary Health Centre, Ernavoor, No 63 Block Tsunami Quarters; All India Nagar; Ernavoor; Chennai  57",13.1895685,80.3039002,2943.013486
S1-4-38,Mahalakshmi Nagar,Tenable,4,99,367,1,"Mahalakshmi Nagar, Ward 4, THIRUVOTRIYUR, Chennai, Tamil Nadu, India",13.1856611,80.3042484,UPHC2,1,3,Ernavoor,"Urban Primary Health Centre, Ernavoor, No 63 Block Tsunami Quarters; All India Nagar; Ernavoor; Chennai  57",13.1895685,80.3039002,797.7480343
S1-4-52,Bajanai Kovil Street,Tenable,4,359,1325,1,"Bajanai Kovil Street, Ward 4, THIRUVOTRIYUR, Chennai, Tamil Nadu, India",13.1916766,80.3072114,UPHC2,1,3,Ernavoor,"Urban Primary Health Centre, Ernavoor, No 63 Block Tsunami Quarters; All India Nagar; Ernavoor; Chennai  57",13.1895685,80.3039002,639.3360207
S1-7-91,Karkil Nagar,Untenable,7,596,2279,1,"Karkil Nagar, Ward 7, THIRUVOTRIYUR, Chennai, Tamil Nadu, India",13.1690345,80.2919759,UPHC3,1,4,Kuppam,"Urban Primary Health Centre, Kuppam, No 1; School Street; Jothi Nagar; Thiruvottiyur;  Chennai  19",13.1796056,80.3004716,1830.392549
S1-6-76,J J Nagar,Untenable,6,97,399,1,"J J Nagar, Ward 6, THIRUVOTRIYUR, Chennai, Tamil Nadu, India",13.1775246,80.2948772,UPHC3,1,4,Kuppam,"Urban Primary Health Centre, Kuppam, No 1; School Street; Jothi Nagar; Thiruvottiyur;  Chennai  19",13.1796056,80.3004716,1021.918369
S2-16-13,Burma Nagar,Tenable,16,276,1027,2,"Burma Nagar, Ward 16, MANALI, Chennai, Tamil Nadu, India",13.1831187,80.2837607,UPHC3,1,4,Kuppam,"Urban Primary Health Centre, Kuppam, No 1; School Street; Jothi Nagar; Thiruvottiyur;  Chennai  19",13.1796056,80.3004716,2238.070811
S1-6-74,Jai Hind Nagar,Untenable,6,102,416,1,"Jai Hind Nagar, Ward 6, THIRUVOTRIYUR, Chennai, Tamil Nadu, India",13.1834434,80.302159,UPHC3,1,4,Kuppam,"Urban Primary Health Centre, Kuppam, No 1; School Street; Jothi Nagar; Thiruvottiyur;  Chennai  19",13.1796056,80.3004716,737.4909379
S2-16-15,"Sadayan Kuppam , St Colony",Tenable,16,40,136,2,"Sadayan Kuppam , St Colony, Ward 16, MANALI, Chennai, Tamil Nadu, India",13.1842451,80.2837727,UPHC3,1,4,Kuppam,"Urban Primary Health Centre, Kuppam, No 1; School Street; Jothi Nagar; Thiruvottiyur;  Chennai  19",13.1796056,80.3004716,2325.546963
S1-4-43,Ernavoor,Tenable,4,178,616,1,"Ernavoor, Ward 4, THIRUVOTRIYUR, Chennai, Tamil Nadu, India",13.1895685,80.3039002,UPHC3,1,4,Kuppam,"Urban Primary Health Centre, Kuppam, No 1; School Street; Jothi Nagar; Thiruvottiyur;  Chennai  19",13.1796056,80.3004716,1647.715808
S1-9-117,Pattinathar Koil,Tenable,9,928,3201,1,"Pattinathar Koil, Ward 9, THIRUVOTRIYUR, Chennai, Tamil Nadu, India",13.1629918,80.3048291,UPHC4,1,11,Thiruvottiyur,"Urban Primary Health Centre, Thiruvottiyur, No 945; Thiruvottiyur High Road; Chennai  19",13.1683574,80.3045848,786.1228968
S1-9-114,Appar Nagar,Tenable,9,279,770,1,"Appar Nagar, Ward 9, THIRUVOTRIYUR, Chennai, Tamil Nadu, India",13.1640671,80.308079,UPHC4,1,11,Thiruvottiyur,"Urban Primary Health Centre, Thiruvottiyur, No 945; Thiruvottiyur High Road; Chennai  19",13.1683574,80.3045848,1136.684835
S1-7-89,Nehru Nagar,Tenable,7,81,286,1,"Nehru Nagar, Ward 7, THIRUVOTRIYUR, Chennai, Tamil Nadu, India",13.1648588,80.2913625,UPHC4,1,11,Thiruvottiyur,"Urban Primary Health Centre, Thiruvottiyur, No 945; Thiruvottiyur High Road; Chennai  19",13.1683574,80.3045848,2002.239639
S1-8-108,"T S R Nagar , Ottaraivadai Street",Tenable,8,180,666,1,"T S R Nagar , Ottaraivadai Street, Ward 8, THIRUVOTRIYUR, Chennai, Tamil Nadu, India",13.1659149,80.305119,UPHC4,1,11,Thiruvottiyur,"Urban Primary Health Centre, Thiruvottiyur, No 945; Thiruvottiyur High Road; Chennai  19",13.1683574,80.3045848,430.2388583
S1-5-62,Thiru Nagar,Tenable,5,181,701,1,"Thiru Nagar, Ward 5, THIRUVOTRIYUR, Chennai, Tamil Nadu, India",13.1697161,80.3066861,UPHC4,1,11,Thiruvottiyur,"Urban Primary Health Centre, Thiruvottiyur, No 945; Thiruvottiyur High Road; Chennai  19",13.1683574,80.3045848,508.7848173
S1-5-61,Thiruvalluvar Nagar,Tenable,5,151,533,1,"Thiruvalluvar Nagar, Ward 5, THIRUVOTRIYUR, Chennai, Tamil Nadu, India",13.1769492,80.3094719,UPHC4,1,11,Thiruvottiyur,"Urban Primary Health Centre, Thiruvottiyur, No 945; Thiruvottiyur High Road; Chennai  19",13.1683574,80.3045848,1595.847232
S1-5-55,Sakthipuram,Tenable,5,185,707,1,"Sakthipuram, Ward 5, THIRUVOTRIYUR, Chennai, Tamil Nadu, India",13.1794308,80.3091237,UPHC4,1,11,Thiruvottiyur,"Urban Primary Health Centre, Thiruvottiyur, No 945; Thiruvottiyur High Road; Chennai  19",13.1683574,80.3045848,1589.267372
S1-5-56,Poompuhar Nagar,Tenable,5,197,753,1,"Poompuhar Nagar, Ward 5, THIRUVOTRIYUR, Chennai, Tamil Nadu, India",13.1813315,80.3075567,UPHC4,1,11,Thiruvottiyur,"Urban Primary Health Centre, Thiruvottiyur, No 945; Thiruvottiyur High Road; Chennai  19",13.1683574,80.3045848,1540.172138
S1-5-60,Dr.Ambedkar Nagar,Tenable,5,339,1198,1,"Dr.Ambedkar Nagar, Ward 5, THIRUVOTRIYUR, Chennai, Tamil Nadu, India",13.1823063,80.3075275,UPHC4,1,11,Thiruvottiyur,"Urban Primary Health Centre, Thiruvottiyur, No 945; Thiruvottiyur High Road; Chennai  19",13.1683574,80.3045848,1659.320078
S1-14-140,Thiyagarayapuram,Tenable,14,1317,4693,1,"Thiyagarayapuram, Ward 14, THIRUVOTRIYUR, Chennai, Tamil Nadu, India",13.1480724,80.2997212,UPHC6,1,14,Thangal,"Urban Primary Health Centre, Thangal, No 3 2; Poongavanapuram; Kaladipet; Thiruvottiyur; Chennai  19",13.152677,80.2951065,1066.098156
S1-11-127,Poongavanapuram,Tenable,11,488,1867,1,"Poongavanapuram, Ward 11, THIRUVOTRIYUR, Chennai, Tamil Nadu, India",13.1527116,80.3023221,UPHC6,1,14,Thangal,"Urban Primary Health Centre, Thangal, No 3 2; Poongavanapuram; Kaladipet; Thiruvottiyur; Chennai  19",13.152677,80.2951065,933.0619893
S3-29-53,Kakkanpuram,Tenable,29,72,319,3,"Kakkanpuram, Ward 29, MADHAVARAM, Chennai, Tamil Nadu, India",13.1516065,80.2614037,UPHC7,2,21,Manali,"Urban Primary Health Centre, Manali, No 1 Nedunchezian Salai; Manali Chennai  68",13.1635785,80.2586088,1878.690253
S3-29-55,"Chinna Sekadu , Chandramman Koil",Tenable,29,50,206,3,"Chinna Sekadu , Chandramman Koil, Ward 29, MADHAVARAM, Chennai, Tamil Nadu, India",13.1605,80.2587034,UPHC7,2,21,Manali,"Urban Primary Health Centre, Manali, No 1 Nedunchezian Salai; Manali Chennai  68",13.1635785,80.2586088,372.5993292
S3-28-51,Periya Sekkadu,Tenable,28,21,72,3,"Periya Sekkadu, Ward 28, MADHAVARAM, Chennai, Tamil Nadu, India",13.1618972,80.2509504,UPHC7,2,21,Manali,"Urban Primary Health Centre, Manali, No 1 Nedunchezian Salai; Manali Chennai  68",13.1635785,80.2586088,1141.440402
S2-20-45,Chinnakannu Street,Tenable,20,19,70,2,"Chinnakannu Street, Ward 20, MANALI, Chennai, Tamil Nadu, India",13.1664375,80.2532644,UPHC7,2,21,Manali,"Urban Primary Health Centre, Manali, No 1 Nedunchezian Salai; Manali Chennai  68",13.1635785,80.2586088,748.8669216
S2-20-41,Balaraman Street,Untenable,20,118,526,2,"Balaraman Street, Ward 20, MANALI, Chennai, Tamil Nadu, India",13.1686854,80.2536231,UPHC7,2,21,Manali,"Urban Primary Health Centre, Manali, No 1 Nedunchezian Salai; Manali Chennai  68",13.1635785,80.2586088,1037.762204
S2-20-47,Rajiv Gandhi Street,Tenable,20,23,74,2,"Rajiv Gandhi Street, Ward 20, MANALI, Chennai, Tamil Nadu, India",13.1691983,80.2552951,UPHC7,2,21,Manali,"Urban Primary Health Centre, Manali, No 1 Nedunchezian Salai; Manali Chennai  68",13.1635785,80.2586088,931.0010879
S2-18-34,SR.C.V.Raman Street,Tenable,18,54,200,2,"SR.C.V.Raman Street, Ward 18, MANALI, Chennai, Tamil Nadu, India",13.1693546,80.2623907,UPHC7,2,21,Manali,"Urban Primary Health Centre, Manali, No 1 Nedunchezian Salai; Manali Chennai  68",13.1635785,80.2586088,1070.674725
S2-19-40,Periyamathur,Tenable,19,238,956,2,"Periyamathur, Ward 19, MANALI, Chennai, Tamil Nadu, India",13.1701327,80.245782,UPHC7,2,21,Manali,"Urban Primary Health Centre, Manali, No 1 Nedunchezian Salai; Manali Chennai  68",13.1635785,80.2586088,1805.267225
S2-19-35,Omakulam,Tenable,19,64,231,2,"Omakulam, Ward 19, MANALI, Chennai, Tamil Nadu, India",13.1703701,80.2415787,UPHC7,2,21,Manali,"Urban Primary Health Centre, Manali, No 1 Nedunchezian Salai; Manali Chennai  68",13.1635785,80.2586088,2327.708568
S2-20-46,M.G.R.Street,Tenable,20,21,76,2,"M.G.R.Street, Ward 20, MANALI, Chennai, Tamil Nadu, India",13.1722935,80.2557751,UPHC7,2,21,Manali,"Urban Primary Health Centre, Manali, No 1 Nedunchezian Salai; Manali Chennai  68",13.1635785,80.2586088,1110.146134
S2-18-28,Ekambaram Street,Untenable,18,65,258,2,"Ekambaram Street, Ward 18, MANALI, Chennai, Tamil Nadu, India",13.1727755,80.2610868,UPHC7,2,21,Manali,"Urban Primary Health Centre, Manali, No 1 Nedunchezian Salai; Manali Chennai  68",13.1635785,80.2586088,1352.305005
S2-18-33,CPCL Nagar,Tenable,18,361,1328,2,"CPCL Nagar, Ward 18, MANALI, Chennai, Tamil Nadu, India",13.1734585,80.2551319,UPHC7,2,21,Manali,"Urban Primary Health Centre, Manali, No 1 Nedunchezian Salai; Manali Chennai  68",13.1635785,80.2586088,1293.504444
S2-18-30,Harikrishnapuram,Untenable,18,128,495,2,"Harikrishnapuram, Ward 18, MANALI, Chennai, Tamil Nadu, India",13.1744102,80.2614037,UPHC7,2,21,Manali,"Urban Primary Health Centre, Manali, No 1 Nedunchezian Salai; Manali Chennai  68",13.1635785,80.2586088,1827.013804
S2-17-16,Kossapur Colony Area I,Tenable,17,188,678,2,"Kossapur Colony Area I, Ward 17, MANALI, Chennai, Tamil Nadu, India",13.184242,80.2365982,UPHC7,2,21,Manali,"Urban Primary Health Centre, Manali, No 1 Nedunchezian Salai; Manali Chennai  68",13.1635785,80.2586088,4976.435568
S2-17-18,Kossapur Area II,Tenable,17,88,307,2,"Kossapur Area II, Ward 17, MANALI, Chennai, Tamil Nadu, India",13.184242,80.2365982,UPHC7,2,21,Manali,"Urban Primary Health Centre, Manali, No 1 Nedunchezian Salai; Manali Chennai  68",13.1635785,80.2586088,4976.435568
S2-16-9,"Kanniyamman Pettai ,Colony",Tenable,16,126,460,2,"Kanniyamman Pettai ,Colony, Ward 16, MANALI, Chennai, Tamil Nadu, India",13.1948404,80.2551319,UPHC8,2,15,Manali New Town,"Urban Primary Health Centre, Manali New Town, 15 T Main Road; 58th Block; Manali New Town; Chennai  103",13.2013779,80.2690808,3016.913041
S2-16-12,Kanniyamman pettai,Tenable,16,172,632,2,"Kanniyamman pettai, Ward 16, MANALI, Chennai, Tamil Nadu, India",13.1948404,80.2551319,UPHC8,2,15,Manali New Town,"Urban Primary Health Centre, Manali New Town, 15 T Main Road; 58th Block; Manali New Town; Chennai  103",13.2013779,80.2690808,3016.913041
S2-17-22,Theeyambakkam,Tenable,17,89,324,2,"Theeyambakkam, Ward 17, MANALI, Chennai, Tamil Nadu, India",13.1966201,80.2350707,UPHC8,2,15,Manali New Town,"Urban Primary Health Centre, Manali New Town, 15 T Main Road; 58th Block; Manali New Town; Chennai  103",13.2013779,80.2690808,5501.632177
S2-15-2,Old Napalayam,Tenable,15,325,1214,2,"Old Napalayam, Ward 15, MANALI, Chennai, Tamil Nadu, India",13.2258456,80.2735228,UPHC8,2,15,Manali New Town,"Urban Primary Health Centre, Manali New Town, 15 T Main Road; 58th Block; Manali New Town; Chennai  103",13.2013779,80.2690808,2835.015844
S2-15-3,New Napalayam,Tenable,15,190,676,2,"New Napalayam, Ward 15, MANALI, Chennai, Tamil Nadu, India",13.2264835,80.2737295,UPHC8,2,15,Manali New Town,"Urban Primary Health Centre, Manali New Town, 15 T Main Road; 58th Block; Manali New Town; Chennai  103",13.2013779,80.2690808,2888.537516
S3-25-17,Mathew Street,Tenable,25,85,232,3,"Mathew Street, Ward 25, MADHAVARAM, Chennai, Tamil Nadu, India",13.1523503,80.2079485,UPHC9,3,22,Puzhal,"Urban Primary Health Centre, Puzhal, Gandhi Street; Puzhal;  Chennai  66",13.164815,80.2048379,2071.935002
S3-22-3,Kavangarai,Tenable,22,293,1148,3,"Kavangarai, Ward 22, MADHAVARAM, Chennai, Tamil Nadu, India",13.1705476,80.1954051,UPHC9,3,22,Puzhal,"Urban Primary Health Centre, Puzhal, Gandhi Street; Puzhal;  Chennai  66",13.164815,80.2048379,1526.216566
S3-22-2,Kannappasamy Nagar,Tenable,22,357,1333,3,"Kannappasamy Nagar, Ward 22, MADHAVARAM, Chennai, Tamil Nadu, India",13.1718526,80.1944807,UPHC9,3,22,Puzhal,"Urban Primary Health Centre, Puzhal, Gandhi Street; Puzhal;  Chennai  66",13.164815,80.2048379,1661.127614
S2-17-25,Ariyalur Gramam,Tenable,17,98,371,2,"Ariyalur Gramam, Ward 17, MANALI, Chennai, Tamil Nadu, India",13.1803135,80.229343,UPHC9,3,22,Puzhal,"Urban Primary Health Centre, Puzhal, Gandhi Street; Puzhal;  Chennai  66",13.164815,80.2048379,4309.174809
S3-33-76,Ponniyamman Medu,Tenable,33,36,129,3,"Ponniyamman Medu, Ward 33, MADHAVARAM, Chennai, Tamil Nadu, India",13.1349662,80.2274201,UPHC10,3,26,Madhavaram,"Urban Primary Health Centre, Madhavaram, No 47; Swamy Nagar Madhavaram; Chennai  60",13.1471925,80.2296915,1638.086298
S3-31-66,Ambedkar Nagar,Tenable,31,384,1504,3,"Ambedkar Nagar, Ward 31, MADHAVARAM, Chennai, Tamil Nadu, India",13.1363254,80.2334578,UPHC10,3,26,Madhavaram,"Urban Primary Health Centre, Madhavaram, No 47; Swamy Nagar Madhavaram; Chennai  60",13.1471925,80.2296915,1747.703473
S3-33-83,G.N.T.Road,Tenable,33,80,280,3,"G.N.T.Road, Ward 33, MADHAVARAM, Chennai, Tamil Nadu, India",13.1381167,80.2290164,UPHC10,3,26,Madhavaram,"Urban Primary Health Centre, Madhavaram, No 47; Swamy Nagar Madhavaram; Chennai  60",13.1471925,80.2296915,1264.019822
S3-31-62,Udayar Thottam,Tenable,31,378,1455,3,"Udayar Thottam, Ward 31, MADHAVARAM, Chennai, Tamil Nadu, India",13.140254,80.2345711,UPHC10,3,26,Madhavaram,"Urban Primary Health Centre, Madhavaram, No 47; Swamy Nagar Madhavaram; Chennai  60",13.1471925,80.2296915,1404.780891
S3-31-57,Kannapiran street,Tenable,31,242,960,3,"Kannapiran street, Ward 31, MADHAVARAM, Chennai, Tamil Nadu, India",13.14118,80.2328613,UPHC10,3,26,Madhavaram,"Urban Primary Health Centre, Madhavaram, No 47; Swamy Nagar Madhavaram; Chennai  60",13.1471925,80.2296915,1148.97498
S3-26-46,Seethapathy Street,Tenable,26,64,222,3,"Seethapathy Street, Ward 26, MADHAVARAM, Chennai, Tamil Nadu, India",13.1482486,80.2285541,UPHC10,3,26,Madhavaram,"Urban Primary Health Centre, Madhavaram, No 47; Swamy Nagar Madhavaram; Chennai  60",13.1471925,80.2296915,266.1786095
S3-25-44,Sembiam Street,Tenable,25,39,94,3,"Sembiam Street, Ward 25, MADHAVARAM, Chennai, Tamil Nadu, India",13.141922,80.2056741,UPHC12,3,32,Lakshmipuram,"Urban Primary Health Centre, Lakshmipuram, 32; Gangai Amman Koil Street; Lakshmipuram; Chennai  99",13.1326884,80.21021,1483.815036
S3-25-25,Thanthai Periyar Street,Tenable,25,7,15,3,"Thanthai Periyar Street, Ward 25, MADHAVARAM, Chennai, Tamil Nadu, India",13.1478289,80.2044919,UPHC12,3,32,Lakshmipuram,"Urban Primary Health Centre, Lakshmipuram, 32; Gangai Amman Koil Street; Lakshmipuram; Chennai  99",13.1326884,80.21021,2191.837783
S3-31-58,Muthumariamman koil st,Tenable,31,62,237,3,"Muthumariamman koil st, Ward 31, MADHAVARAM, Chennai, Tamil Nadu, India",13.1390163,80.2356104,UPHC13,4,35,Kodungaiyur,"Urban Primary Health Centre, Kodungaiyur, No 15; Anna Salai; Kodungaiyur; Chennai  118",13.1349069,80.2436791,1366.957797
S4-47-114,Meenambal Nagar,Tenable,47,1087,4255,4,"Meenambal Nagar, Ward 47, TONDIAR PET, Chennai, Tamil Nadu, India",13.1181232,80.2779533,UPHC15,4,37,Vyasarpadi,"Urban Primary Health Centre, Vyasarpadi, No 155A; 14th Cross St; Mkb Nagar; Vyasarpadi; Chennai  39",13.115989,80.2719465,1082.632206
S4-43-88,New Amaranjipuram,Tenable,43,217,943,4,"New Amaranjipuram, Ward 43, TONDIAR PET, Chennai, Tamil Nadu, India",13.1237997,80.2927705,UPHC16,4,38,RKNagar N,"Urban Primary Health Centre, RKNagar N, No 140; Annai Sandhya Nagar; 1St Street; Tondaiyarpet; Chennai  81",13.1259316,80.2923985,340.5551966
S5-53-12,C.B.Road,Tenable,53,299,1346,5,"C.B.Road, Ward 53, ROYAPURAM, Chennai, Tamil Nadu, India",13.1084888,80.2722277,UPHC17,4,47,Harinarayana Puram,"Urban Primary Health Centre, Harinarayana Puram, Old Glass Factory Road; Korukkupet; Chennai 21;",13.1106555,80.2738968,349.4244708
S5-53-5,Canal Street,Tenable,53,451,1829,5,"Canal Street, Ward 53, ROYAPURAM, Chennai, Tamil Nadu, India",13.1089557,80.271529,UPHC17,4,47,Harinarayana Puram,"Urban Primary Health Centre, Harinarayana Puram, Old Glass Factory Road; Korukkupet; Chennai 21;",13.1106555,80.2738968,433.4982976
S5-53-11,Stanly Nagar,Tenable,53,675,2779,5,"Stanly Nagar, Ward 53, ROYAPURAM, Chennai, Tamil Nadu, India",13.1089835,80.2730763,UPHC17,4,47,Harinarayana Puram,"Urban Primary Health Centre, Harinarayana Puram, Old Glass Factory Road; Korukkupet; Chennai 21;",13.1106555,80.2738968,213.4334617
S4-47-125,Ambethkar nagar,Tenable,47,1127,4659,4,"Ambethkar nagar, Ward 47, TONDIAR PET, Chennai, Tamil Nadu, India",13.1139796,80.2742942,UPHC17,4,47,Harinarayana Puram,"Urban Primary Health Centre, Harinarayana Puram, Old Glass Factory Road; Korukkupet; Chennai 21;",13.1106555,80.2738968,472.0042709
S4-39-34,Desiya Nagar,Tenable,39,682,2693,4,"Desiya Nagar, Ward 39, TONDIAR PET, Chennai, Tamil Nadu, India",13.135416,80.293387,UPHC18,4,39,New Washermenpet,"Urban Primary Health Centre, New Washermenpet, No 4; Chriyan Nagar 4th St; New Washermenpet; Chennai  81",13.1398167,80.2977219,853.285369
S4-40-46,Sivagami Nagar,Tenable,40,329,1151,4,"Sivagami Nagar, Ward 40, TONDIAR PET, Chennai, Tamil Nadu, India",13.1367509,80.2924073,UPHC18,4,39,New Washermenpet,"Urban Primary Health Centre, New Washermenpet, No 4; Chriyan Nagar 4th St; New Washermenpet; Chennai  81",13.1398167,80.2977219,913.5610437
S4-40-37,Jeeva Nagar,Tenable,40,891,3362,4,"Jeeva Nagar, Ward 40, TONDIAR PET, Chennai, Tamil Nadu, India",13.1373315,80.2889243,UPHC18,4,39,New Washermenpet,"Urban Primary Health Centre, New Washermenpet, No 4; Chriyan Nagar 4th St; New Washermenpet; Chennai  81",13.1398167,80.2977219,1259.267685
S4-39-31,Cheriyan Nagar,Tenable,39,850,3304,4,"Cheriyan Nagar, Ward 39, TONDIAR PET, Chennai, Tamil Nadu, India",13.138163,80.297142,UPHC18,4,39,New Washermenpet,"Urban Primary Health Centre, New Washermenpet, No 4; Chriyan Nagar 4th St; New Washermenpet; Chennai  81",13.1398167,80.2977219,215.0166267
S4-39-32,Ashok Nagar,Tenable,39,468,1585,4,"Ashok Nagar, Ward 39, TONDIAR PET, Chennai, Tamil Nadu, India",13.138163,80.297142,UPHC18,4,39,New Washermenpet,"Urban Primary Health Centre, New Washermenpet, No 4; Chriyan Nagar 4th St; New Washermenpet; Chennai  81",13.1398167,80.2977219,215.0166267
S4-39-33,Dhanabal Nagar,Tenable,39,335,951,4,"Dhanabal Nagar, Ward 39, TONDIAR PET, Chennai, Tamil Nadu, India",13.138163,80.297142,UPHC18,4,39,New Washermenpet,"Urban Primary Health Centre, New Washermenpet, No 4; Chriyan Nagar 4th St; New Washermenpet; Chennai  81",13.1398167,80.2977219,215.0166267
S4-40-40,V.O.C Nagar,Tenable,40,377,1330,4,"V.O.C Nagar, Ward 40, TONDIAR PET, Chennai, Tamil Nadu, India",13.1316738,80.2883267,UPHC19,4,40,Voc Nagar,"Urban Primary Health Centre, Voc Nagar, No1; Chlliamman Koil St; Tondaiyarpet; Chennai  81",13.1262149,80.2922633,1042.574486
S4-40-38,Seniamman koil st,Tenable,40,419,1511,4,"Seniamman koil st, Ward 40, TONDIAR PET, Chennai, Tamil Nadu, India",13.1320109,80.2896323,UPHC19,4,40,Voc Nagar,"Urban Primary Health Centre, Voc Nagar, No1; Chlliamman Koil St; Tondaiyarpet; Chennai  81",13.1262149,80.2922633,940.6898111
S4-41-65,Moopanar Nagar,Tenable,41,521,1784,4,"Moopanar Nagar, Ward 41, TONDIAR PET, Chennai, Tamil Nadu, India",13.1235131,80.2763873,UPHC20,4,41,Korukkupet,"Urban Primary Health Centre, Korukkupet, No15; Amman Koil St; Sivaji Nagar; Korukkupet; Chennai  21",13.1274481,80.2797992,778.480845
S4-41-60,Gopal Nagar,Tenable,41,240,974,4,"Gopal Nagar, Ward 41, TONDIAR PET, Chennai, Tamil Nadu, India",13.125457,80.2763844,UPHC20,4,41,Korukkupet,"Urban Primary Health Centre, Korukkupet, No15; Amman Koil St; Sivaji Nagar; Korukkupet; Chennai  21",13.1274481,80.2797992,985.3714046
S4-41-73,Marimuthu Street,Tenable,41,195,535,4,"Marimuthu Street, Ward 41, TONDIAR PET, Chennai, Tamil Nadu, India",13.125479,80.2779515,UPHC20,4,41,Korukkupet,"Urban Primary Health Centre, Korukkupet, No15; Amman Koil St; Sivaji Nagar; Korukkupet; Chennai  21",13.1274481,80.2797992,404.2971522
S4-41-64,Parthasarathy Street,Tenable,41,177,582,4,"Parthasarathy Street, Ward 41, TONDIAR PET, Chennai, Tamil Nadu, India",13.125572,80.2791434,UPHC20,4,41,Korukkupet,"Urban Primary Health Centre, Korukkupet, No15; Amman Koil St; Sivaji Nagar; Korukkupet; Chennai  21",13.1274481,80.2797992,480.4478631
S4-41-72,Sivaji Nagar,Tenable,41,560,1800,4,"Sivaji Nagar, Ward 41, TONDIAR PET, Chennai, Tamil Nadu, India",13.1273832,80.2802162,UPHC20,4,41,Korukkupet,"Urban Primary Health Centre, Korukkupet, No15; Amman Koil St; Sivaji Nagar; Korukkupet; Chennai  21",13.1274481,80.2797992,54.36590609
S4-38-27,Durgadevi Nagar,tenable,38,480,1954,4,"Durgadevi Nagar, Ward 38, TONDIAR PET, Chennai, Tamil Nadu, India",13.1287025,80.2774294,UPHC20,4,41,Korukkupet,"Urban Primary Health Centre, Korukkupet, No15; Amman Koil St; Sivaji Nagar; Korukkupet; Chennai  21",13.1274481,80.2797992,399.9109502
S4-41-63,Ezil nagar,Tenable,41,720,2750,4,"Ezil nagar, Ward 41, TONDIAR PET, Chennai, Tamil Nadu, India",13.1299689,80.2732491,UPHC20,4,41,Korukkupet,"Urban Primary Health Centre, Korukkupet, No15; Amman Koil St; Sivaji Nagar; Korukkupet; Chennai  21",13.1274481,80.2797992,1039.155757
S4-38-21,Nehru Nagar,Tenable,38,1387,5511,4,"Nehru Nagar, Ward 38, TONDIAR PET, Chennai, Tamil Nadu, India",13.1316542,80.2791104,UPHC20,4,41,Korukkupet,"Urban Primary Health Centre, Korukkupet, No15; Amman Koil St; Sivaji Nagar; Korukkupet; Chennai  21",13.1274481,80.2797992,617.7391453
S4-38-25,Gandhi Nagar,Tenable,38,136,553,4,"Gandhi Nagar, Ward 38, TONDIAR PET, Chennai, Tamil Nadu, India",13.1316542,80.2791104,UPHC20,4,41,Korukkupet,"Urban Primary Health Centre, Korukkupet, No15; Amman Koil St; Sivaji Nagar; Korukkupet; Chennai  21",13.1274481,80.2797992,617.7391453
S4-38-28,Sathri nagar,Tenable,38,228,952,4,"Sathri nagar, Ward 38, TONDIAR PET, Chennai, Tamil Nadu, India",13.1316542,80.2791104,UPHC20,4,41,Korukkupet,"Urban Primary Health Centre, Korukkupet, No15; Amman Koil St; Sivaji Nagar; Korukkupet; Chennai  21",13.1274481,80.2797992,617.7391453
S4-38-29,Tamizhan nagar,Tenable,38,150,601,4,"Tamizhan nagar, Ward 38, TONDIAR PET, Chennai, Tamil Nadu, India",13.1316542,80.2791104,UPHC20,4,41,Korukkupet,"Urban Primary Health Centre, Korukkupet, No15; Amman Koil St; Sivaji Nagar; Korukkupet; Chennai  21",13.1274481,80.2797992,617.7391453
S4-38-30,Karunanidhi Nagar,Tenable,38,814,3266,4,"Karunanidhi Nagar, Ward 38, TONDIAR PET, Chennai, Tamil Nadu, India",13.1361747,80.2798091,UPHC20,4,41,Korukkupet,"Urban Primary Health Centre, Korukkupet, No15; Amman Koil St; Sivaji Nagar; Korukkupet; Chennai  21",13.1274481,80.2797992,1235.053674
S4-38-20,Vinobha nagar,Tenable,38,836,3146,4,"Vinobha nagar, Ward 38, TONDIAR PET, Chennai, Tamil Nadu, India",13.1362494,80.2791712,UPHC20,4,41,Korukkupet,"Urban Primary Health Centre, Korukkupet, No15; Amman Koil St; Sivaji Nagar; Korukkupet; Chennai  21",13.1274481,80.2797992,1227.030346
S4-38-26,Nedunchezhiyan Nagar,Tenable,38,484,1850,4,"Nedunchezhiyan Nagar, Ward 38, TONDIAR PET, Chennai, Tamil Nadu, India",13.1391258,80.2798679,UPHC20,4,41,Korukkupet,"Urban Primary Health Centre, Korukkupet, No15; Amman Koil St; Sivaji Nagar; Korukkupet; Chennai  21",13.1274481,80.2797992,1560.132989
S4-38-24,New Vinobha nagar,Tenable,38,112,456,4,"New Vinobha nagar, Ward 38, TONDIAR PET, Chennai, Tamil Nadu, India",13.139865,80.2786007,UPHC20,4,41,Korukkupet,"Urban Primary Health Centre, Korukkupet, No15; Amman Koil St; Sivaji Nagar; Korukkupet; Chennai  21",13.1274481,80.2797992,1739.761235
S4-35-4,Erukkancherry,Tenable,35,162,662,4,"Erukkancherry, Ward 35, TONDIAR PET, Chennai, Tamil Nadu, India",13.1307574,80.2511813,UPHC21,4,42,Jeeva Nagar,"Urban Primary Health Centre, Jeeva Nagar, No 602; THRoad; Tondaiyarpet; Chennai  81",13.1324667,80.253515,327.3905739
S4-43-95,Kasipuram,Tenable,43,146,608,4,"Kasipuram, Ward 43, TONDIAR PET, Chennai, Tamil Nadu, India",13.1293356,80.2941488,UPHC22,4,43,Tondiarpet,"Urban Primary Health Centre, Tondiarpet, Kasima Nagar 3Rd Street; Chennai 13",13.128811,80.2931751,185.6578003
S4-43-89,Surya Narayana chetty street,Tenable,43,338,1276,4,"Surya Narayana chetty street, Ward 43, TONDIAR PET, Chennai, Tamil Nadu, India",13.1306937,80.296135,UPHC22,4,43,Tondiarpet,"Urban Primary Health Centre, Tondiarpet, Kasima Nagar 3Rd Street; Chennai 13",13.128811,80.2931751,513.9591425
S4-43-93,Surya Narayana street,Tenable,43,29,120,4,"Surya Narayana street, Ward 43, TONDIAR PET, Chennai, Tamil Nadu, India",13.1306937,80.296135,UPHC22,4,43,Tondiarpet,"Urban Primary Health Centre, Tondiarpet, Kasima Nagar 3Rd Street; Chennai 13",13.128811,80.2931751,513.9591425
S3-33-81,Vasudevan Thottam,Tenable,33,62,224,3,"Vasudevan Thottam, Ward 33, MADHAVARAM, Chennai, Tamil Nadu, India",13.1324282,80.2313705,UPHC24,4,44,Perambur,"Urban Primary Health Centre, Perambur, No100; Kamaraj Nagar 2nd St; Vyasarapadi; Chennai  11",13.1236814,80.2316773,1137.730874
S3-33-72,Nethaji Street,Tenable,33,20,66,3,"Nethaji Street, Ward 33, MADHAVARAM, Chennai, Tamil Nadu, India",13.1340591,80.2291404,UPHC24,4,44,Perambur,"Urban Primary Health Centre, Perambur, No100; Kamaraj Nagar 2nd St; Vyasarapadi; Chennai  11",13.1236814,80.2316773,1453.853987
S3-33-71,Kanaga Chathiram,Tenable,33,21,78,3,"Kanaga Chathiram, Ward 33, MADHAVARAM, Chennai, Tamil Nadu, India",13.1340789,80.2314343,UPHC24,4,44,Perambur,"Urban Primary Health Centre, Perambur, No100; Kamaraj Nagar 2nd St; Vyasarapadi; Chennai  11",13.1236814,80.2316773,1324.741724
S3-33-78,Vedachalam Street,Tenable,33,31,127,3,"Vedachalam Street, Ward 33, MADHAVARAM, Chennai, Tamil Nadu, India",13.1354049,80.2308941,UPHC24,4,44,Perambur,"Urban Primary Health Centre, Perambur, No100; Kamaraj Nagar 2nd St; Vyasarapadi; Chennai  11",13.1236814,80.2316773,1595.387917
S10-128-9,Aranganathan Nagar,Tenable,128,183,772,10,"Aranganathan Nagar, Ward 128, KODAMBAKKAM, Chennai, Tamil Nadu, India",13.0488534,80.190645,UPHC25,4,45,Elango Nagar,"Urban Primary Health Centre, Elango Nagar, No18; Dr Ambedkar College Road; Vyasarpadi; Chennai  39",13.0537182,80.1906046,809.9012503
S6-72-33,Venkatesapuram New Colony,Tenable,72,170,744,6,"Venkatesapuram New Colony, Ward 72, THIRU-VI-KA NAGAR, Chennai, Tamil Nadu, India",13.1071199,80.2624489,UPHC26,4,45,Sathiya Moorthy Nagar,"Urban Primary Health Centre, Sathiya Moorthy Nagar, No17; Sathyamoorthy Nagar Main Road; Vyasarpadi; Chennai 39",13.1178746,80.2657288,1496.833313
S6-72-48,Kasturibai Colony B Block,Tenable,72,188,931,6,"Kasturibai Colony B Block, Ward 72, THIRU-VI-KA NAGAR, Chennai, Tamil Nadu, India",13.107806,80.2664556,UPHC26,4,45,Sathiya Moorthy Nagar,"Urban Primary Health Centre, Sathiya Moorthy Nagar, No17; Sathyamoorthy Nagar Main Road; Vyasarpadi; Chennai 39",13.1178746,80.2657288,1389.653216
S6-72-47,Old Venkatesapuram,Tenable,72,175,751,6,"Old Venkatesapuram, Ward 72, THIRU-VI-KA NAGAR, Chennai, Tamil Nadu, India",13.1093625,80.2652362,UPHC26,4,45,Sathiya Moorthy Nagar,"Urban Primary Health Centre, Sathiya Moorthy Nagar, No17; Sathyamoorthy Nagar Main Road; Vyasarpadi; Chennai 39",13.1178746,80.2657288,1162.157517
S4-46-103,A.Kalyanapuram,Tenable,46,183,694,4,"A.Kalyanapuram, Ward 46, TONDIAR PET, Chennai, Tamil Nadu, India",13.1139794,80.2648878,UPHC26,4,45,Sathiya Moorthy Nagar,"Urban Primary Health Centre, Sathiya Moorthy Nagar, No17; Sathyamoorthy Nagar Main Road; Vyasarpadi; Chennai 39",13.1178746,80.2657288,522.7258387
S4-46-106,B.Kalyanapuram,Tenable,46,867,3477,4,"B.Kalyanapuram, Ward 46, TONDIAR PET, Chennai, Tamil Nadu, India",13.1139794,80.2648878,UPHC26,4,45,Sathiya Moorthy Nagar,"Urban Primary Health Centre, Sathiya Moorthy Nagar, No17; Sathyamoorthy Nagar Main Road; Vyasarpadi; Chennai 39",13.1178746,80.2657288,522.7258387
S4-46-108,Kennedy nagar,Tenable,46,322,1368,4,"Kennedy nagar, Ward 46, TONDIAR PET, Chennai, Tamil Nadu, India",13.1165957,80.2641616,UPHC26,4,45,Sathiya Moorthy Nagar,"Urban Primary Health Centre, Sathiya Moorthy Nagar, No17; Sathyamoorthy Nagar Main Road; Vyasarpadi; Chennai 39",13.1178746,80.2657288,312.1593384
S4-46-111,Jonh Kennady Nagar,Tenable,46,67,278,4,"Jonh Kennady Nagar, Ward 46, TONDIAR PET, Chennai, Tamil Nadu, India",13.1165957,80.2641616,UPHC26,4,45,Sathiya Moorthy Nagar,"Urban Primary Health Centre, Sathiya Moorthy Nagar, No17; Sathyamoorthy Nagar Main Road; Vyasarpadi; Chennai 39",13.1178746,80.2657288,312.1593384
S4-42-75,Rettakuzhai Street,Tenable,42,590,2234,4,"Rettakuzhai Street, Ward 42, TONDIAR PET, Chennai, Tamil Nadu, India",13.122074,80.284523,UPHC28,5,49,Sanjeevarayanpet,"Urban Primary Health Centre, Sanjeevarayanpet, No 194; Solaiappar St; Chennai  21",13.124677,80.290188,939.4574606
S4-42-77,Moyar pasudeven st,Untenable,42,788,2618,4,"Moyar pasudeven st, Ward 42, TONDIAR PET, Chennai, Tamil Nadu, India",13.122074,80.284523,UPHC28,5,49,Sanjeevarayanpet,"Urban Primary Health Centre, Sanjeevarayanpet, No 194; Solaiappar St; Chennai  21",13.124677,80.290188,939.4574606
S4-42-79,Thirunavkarasu thottam,Untenable,42,897,2818,4,"Thirunavkarasu thottam, Ward 42, TONDIAR PET, Chennai, Tamil Nadu, India",13.122074,80.284523,UPHC28,5,49,Sanjeevarayanpet,"Urban Primary Health Centre, Sanjeevarayanpet, No 194; Solaiappar St; Chennai  21",13.124677,80.290188,939.4574606
S4-42-82,K.G.Garden,Untenable,42,299,1090,4,"K.G.Garden, Ward 42, TONDIAR PET, Chennai, Tamil Nadu, India",13.122074,80.284523,UPHC28,5,49,Sanjeevarayanpet,"Urban Primary Health Centre, Sanjeevarayanpet, No 194; Solaiappar St; Chennai  21",13.124677,80.290188,939.4574606
S4-42-83,Appasamy Thottam,Untenable,42,503,1834,4,"Appasamy Thottam, Ward 42, TONDIAR PET, Chennai, Tamil Nadu, India",13.122074,80.284523,UPHC28,5,49,Sanjeevarayanpet,"Urban Primary Health Centre, Sanjeevarayanpet, No 194; Solaiappar St; Chennai  21",13.124677,80.290188,939.4574606
S4-42-84,Veerakutty st,Tenable,42,1053,3801,4,"Veerakutty st, Ward 42, TONDIAR PET, Chennai, Tamil Nadu, India",13.122074,80.284523,UPHC28,5,49,Sanjeevarayanpet,"Urban Primary Health Centre, Sanjeevarayanpet, No 194; Solaiappar St; Chennai  21",13.124677,80.290188,939.4574606
S5-50-2,Amman Koil Street,Tenable,50,283,1145,5,"Amman Koil Street, Ward 50, ROYAPURAM, Chennai, Tamil Nadu, India",13.1103026,80.2967387,UPHC29,5,50,Grace Garden,"Urban Primary Health Centre, Grace Garden, No 1; Venkatesan Street; Royapuram; Chennai  13",13.1183084,80.2930178,1321.541521
S5-50-3,Indira Nagar,UnTenable,50,110,416,5,"Indira Nagar, Ward 50, ROYAPURAM, Chennai, Tamil Nadu, India",13.1205485,80.2972833,UPHC29,5,50,Grace Garden,"Urban Primary Health Centre, Grace Garden, No 1; Venkatesan Street; Royapuram; Chennai  13",13.1183084,80.2930178,730.384465
S5-53-21,Basin Bridge Road,Tenable,53,133,560,5,"Basin Bridge Road, Ward 53, ROYAPURAM, Chennai, Tamil Nadu, India",13.1039625,80.2738079,UPHC30,5,53,Kondithope,"Urban Primary Health Centre, Kondithope, No 60; Basin Bridge Road; Kondithope; Chennai  21",13.1042169,80.2745167,158.9649216
S5-53-16,Chidambaram Nagar,Tenable,53,283,1124,5,"Chidambaram Nagar, Ward 53, ROYAPURAM, Chennai, Tamil Nadu, India",13.1057483,80.2732491,UPHC30,5,53,Kondithope,"Urban Primary Health Centre, Kondithope, No 60; Basin Bridge Road; Kondithope; Chennai  21",13.1042169,80.2745167,325.6642762
S5-53-18,New Labour Lane,Tenable,53,263,1015,5,"New Labour Lane, Ward 53, ROYAPURAM, Chennai, Tamil Nadu, India",13.106015,80.2761233,UPHC30,5,53,Kondithope,"Urban Primary Health Centre, Kondithope, No 60; Basin Bridge Road; Kondithope; Chennai  21",13.1042169,80.2745167,616.5641104
S5-53-15,Pensioners Lane,Tenable,53,343,1486,5,"Pensioners Lane, Ward 53, ROYAPURAM, Chennai, Tamil Nadu, India",13.108845,80.2799481,UPHC30,5,53,Kondithope,"Urban Primary Health Centre, Kondithope, No 60; Basin Bridge Road; Kondithope; Chennai  21",13.1042169,80.2745167,1010.00066
S5-57-58,Jutkapuram,UnTenable,57,322,1427,5,"Jutkapuram, Ward 57, ROYAPURAM, Chennai, Tamil Nadu, India",13.089617,80.2751651,UPHC31,5,54,PK Garden,"Urban Primary Health Centre, PK Garden, No 44; Walltax Road; Chennai  79",13.091172,80.2753649,258.0371213
S5-57-30,Adhi Andra Colony,UnTenable,57,98,441,5,"Adhi Andra Colony, Ward 57, ROYAPURAM, Chennai, Tamil Nadu, India",13.0931649,80.2748168,UPHC31,5,54,PK Garden,"Urban Primary Health Centre, PK Garden, No 44; Walltax Road; Chennai  79",13.091172,80.2753649,278.8384008
S5-60-31,Adam Street,UnTenable,60,96,398,5,"Adam Street, Ward 60, ROYAPURAM, Chennai, Tamil Nadu, India",13.0993034,80.2922107,UPHC33,5,56,Brn Garden,"Urban Primary Health Centre, Brn Garden, No 225; Broadway Road; Chennai  1",13.101256,80.286646,970.6474639
S5-60-44,Angappan Street,Tenable,60,54,202,5,"Angappan Street, Ward 60, ROYAPURAM, Chennai, Tamil Nadu, India",13.0999365,80.2914589,UPHC33,5,56,Brn Garden,"Urban Primary Health Centre, Brn Garden, No 225; Broadway Road; Chennai  1",13.101256,80.286646,826.8960692
S5-56-26,Thiruvalluvar Nagar,UnTenable,56,247,1117,5,"Thiruvalluvar Nagar, Ward 56, ROYAPURAM, Chennai, Tamil Nadu, India",13.1024235,80.2889243,UPHC33,5,56,Brn Garden,"Urban Primary Health Centre, Brn Garden, No 225; Broadway Road; Chennai  1",13.101256,80.286646,444.0873643
S5-59-34,"Sathyavani Muthu Nagar , Huts",Tenable,59,169,606,5,"Sathyavani Muthu Nagar , Huts, Ward 59, ROYAPURAM, Chennai, Tamil Nadu, India",13.0786309,80.2765586,UPHC35,5,60,Harbour,"Urban Primary Health Centre, Harbour, No 1; 4th Lane Beach Road; Chennai  01",13.0826802,80.2707184,1469.314478
S5-59-35,"Sathyavani Muthu Nagar , Bridge",UnTenable,59,260,854,5,"Sathyavani Muthu Nagar , Bridge, Ward 59, ROYAPURAM, Chennai, Tamil Nadu, India",13.0786309,80.2765586,UPHC35,5,60,Harbour,"Urban Primary Health Centre, Harbour, No 1; 4th Lane Beach Road; Chennai  01",13.0826802,80.2707184,1469.314478
S5-59-36,Sathyavani Muthu Nagar,UnTenable,59,264,1014,5,"Sathyavani Muthu Nagar, Ward 59, ROYAPURAM, Chennai, Tamil Nadu, India",13.0786309,80.2765586,UPHC35,5,60,Harbour,"Urban Primary Health Centre, Harbour, No 1; 4th Lane Beach Road; Chennai  01",13.0826802,80.2707184,1469.314478
S5-60-43,Sir Muthusamy Salai,UnTenable,60,253,969,5,"Sir Muthusamy Salai, Ward 60, ROYAPURAM, Chennai, Tamil Nadu, India",13.0790445,80.2820338,UPHC35,5,60,Harbour,"Urban Primary Health Centre, Harbour, No 1; 4th Lane Beach Road; Chennai  01",13.0826802,80.2707184,1771.348985
S5-60-40,North Beach Road,Tenable,60,242,916,5,"North Beach Road, Ward 60, ROYAPURAM, Chennai, Tamil Nadu, India",13.0873776,80.2897473,UPHC36,5,56,Amman Koil South,"Urban Primary Health Centre, Amman Koil South, No 8; Appu Maistry St; Chennai  1",13.097634,80.2857005,1707.823313
S5-60-38,Narayanappa Nayakar Street,Tenable,60,92,351,5,"Narayanappa Nayakar Street, Ward 60, ROYAPURAM, Chennai, Tamil Nadu, India",13.0969799,80.2913411,UPHC36,5,56,Amman Koil South,"Urban Primary Health Centre, Amman Koil South, No 8; Appu Maistry St; Chennai  1",13.097634,80.2857005,780.2715835
S5-56-27,B.R.N Garden,UnTenable,56,203,955,5,"B.R.N Garden, Ward 56, ROYAPURAM, Chennai, Tamil Nadu, India",13.101256,80.286646,UPHC36,5,56,Amman Koil South,"Urban Primary Health Centre, Amman Koil South, No 8; Appu Maistry St; Chennai  1",13.097634,80.2857005,654.2594304
S5-63-69,South Koovam River Road,tenable,63,35,135,5,"South Koovam River Road, Ward 63, ROYAPURAM, Chennai, Tamil Nadu, India",13.0673075,80.2647185,UPHC38,5,63,Pudupet,"Urban Primary Health Centre, Pudupet, No 22; Langs Garden St; Pudupet; Chennai  2",13.0725116,80.2667391,841.0304954
S5-62-56,West Coovum River Road,UnTenable,62,76,258,5,"West Coovum River Road, Ward 62, ROYAPURAM, Chennai, Tamil Nadu, India",13.0721929,80.2682661,UPHC39,5,62,Chinthathirpet; Voluntary,"Urban Primary Health Centre, Chinthathirpet; Voluntary, 94 Cinganna Chtty Street Chindadhripet; Chennai  02",13.0749917,80.2697653,511.6808314
S5-62-61,West Koovam Atru Salai,Untenable,62,393,1457,5,"West Koovam Atru Salai, Ward 62, ROYAPURAM, Chennai, Tamil Nadu, India",13.0721929,80.2682661,UPHC39,5,62,Chinthathirpet; Voluntary,"Urban Primary Health Centre, Chinthathirpet; Voluntary, 94 Cinganna Chtty Street Chindadhripet; Chennai  02",13.0749917,80.2697653,511.6808314
S5-62-60,Pumping Station Road,UnTenable,62,358,1449,5,"Pumping Station Road, Ward 62, ROYAPURAM, Chennai, Tamil Nadu, India",13.0735843,80.2717934,UPHC39,5,62,Chinthathirpet; Voluntary,"Urban Primary Health Centre, Chinthathirpet; Voluntary, 94 Cinganna Chtty Street Chindadhripet; Chennai  02",13.0749917,80.2697653,446.1934994
S6-65-86,Makkaram Thottam,Tenable,65,320,1134,6,"Makkaram Thottam, Ward 65, THIRU-VI-KA NAGAR, Chennai, Tamil Nadu, India",13.1192714,80.2073814,UPHC42,6,65,Kolathur II,"Urban Primary Health Centre, Kolathur II, Srinivasa Nagar 3St; Chennai  99",13.1198743,80.2083449,264.6012993
S6-68-96,Jai beem Nagar,Tenable,68,262,994,6,"Jai beem Nagar, Ward 68, THIRU-VI-KA NAGAR, Chennai, Tamil Nadu, India",13.1175642,80.2373593,UPHC43,6,66,TVKNagar,"Urban Primary Health Centre, TVKNagar, No 1 Pallavan Salai; Chennai  11",13.1215392,80.2349751,804.8427803
S6-68-90,Maduraisamy Madam,Tenable,68,1045,4062,6,"Maduraisamy Madam, Ward 68, THIRU-VI-KA NAGAR, Chennai, Tamil Nadu, India",13.119938,80.2342226,UPHC43,6,66,TVKNagar,"Urban Primary Health Centre, TVKNagar, No 1 Pallavan Salai; Chennai  11",13.1215392,80.2349751,232.9880817
S6-68-91,MalliPoo Colony,Tenable,68,171,729,6,"MalliPoo Colony, Ward 68, THIRU-VI-KA NAGAR, Chennai, Tamil Nadu, India",13.119938,80.2342226,UPHC43,6,66,TVKNagar,"Urban Primary Health Centre, TVKNagar, No 1 Pallavan Salai; Chennai  11",13.1215392,80.2349751,232.9880817
S6-68-94,"Othavadai , Street & Lane",Tenable,68,265,937,6,"Othavadai , Street & Lane, Ward 68, THIRU-VI-KA NAGAR, Chennai, Tamil Nadu, India",13.119938,80.2342226,UPHC43,6,66,TVKNagar,"Urban Primary Health Centre, TVKNagar, No 1 Pallavan Salai; Chennai  11",13.1215392,80.2349751,232.9880817
S6-68-95,Poonusamy Nagar,Tenable,68,225,874,6,"Poonusamy Nagar, Ward 68, THIRU-VI-KA NAGAR, Chennai, Tamil Nadu, India",13.119938,80.2342226,UPHC43,6,66,TVKNagar,"Urban Primary Health Centre, TVKNagar, No 1 Pallavan Salai; Chennai  11",13.1215392,80.2349751,232.9880817
S6-68-99,Thidith Thottam,Tenable,68,1127,4147,6,"Thidith Thottam, Ward 68, THIRU-VI-KA NAGAR, Chennai, Tamil Nadu, India",13.119938,80.2342226,UPHC43,6,66,TVKNagar,"Urban Primary Health Centre, TVKNagar, No 1 Pallavan Salai; Chennai  11",13.1215392,80.2349751,232.9880817
S6-68-92,Apparao Garden,Tenable,68,38,154,6,"Apparao Garden, Ward 68, THIRU-VI-KA NAGAR, Chennai, Tamil Nadu, India",13.1221353,80.2356011,UPHC43,6,66,TVKNagar,"Urban Primary Health Centre, TVKNagar, No 1 Pallavan Salai; Chennai  11",13.1215392,80.2349751,124.7366268
S6-67-11,Loco Works,Un-Tenable,67,74,276,6,"Loco Works, Ward 67, THIRU-VI-KA NAGAR, Chennai, Tamil Nadu, India",13.1084849,80.2336027,UPHC44,6,67,Agaram South,"Urban Primary Health Centre, Agaram South, No 9 Somiya St; Agaram; Chennai  82",13.1116221,80.2294222,742.1691087
S6-66-2,K C Garden,Tenable,66,1587,5449,6,"K C Garden, Ward 66, THIRU-VI-KA NAGAR, Chennai, Tamil Nadu, India",13.1183542,80.2300401,UPHC45,6,68,Sembium,"Urban Primary Health Centre, Sembium, No 238; Paper Mills Road; Sembuim Chennai  11",13.114988,80.2326908,612.7212941
S6-69-101,Maduma Nagar,Tenable,69,792,3086,6,"Maduma Nagar, Ward 69, THIRU-VI-KA NAGAR, Chennai, Tamil Nadu, India",13.120537,80.2451263,UPHC46,6,69,Siruvallur,"Urban Primary Health Centre, Siruvallur, No 12 Kapilar St; Perambur; Chennai  11",13.1205491,80.2435265,185.1921156
S6-73-50,Old Vazhaima Nagar,Tenable,73,464,1820,6,"Old Vazhaima Nagar, Ward 73, THIRU-VI-KA NAGAR, Chennai, Tamil Nadu, India",13.0988485,80.2523934,UPHC48,6,73,Wadianagar,"Urban Primary Health Centre, Wadianagar, No 57; Cooks Road Ayanavaram; Chennai  23",13.0993089,80.2515437,178.8108097
S6-71-26,New Tank Bund Road,Tenable,71,122,418,6,"New Tank Bund Road, Ward 71, THIRU-VI-KA NAGAR, Chennai, Tamil Nadu, India",13.0997065,80.2473328,UPHC48,6,73,Wadianagar,"Urban Primary Health Centre, Wadianagar, No 57; Cooks Road Ayanavaram; Chennai  23",13.0993089,80.2515437,621.7902355
S6-71-30,Krishnadoss Road,Tenable,71,847,3179,6,"Krishnadoss Road, Ward 71, THIRU-VI-KA NAGAR, Chennai, Tamil Nadu, India",13.1029248,80.2492468,UPHC48,6,73,Wadianagar,"Urban Primary Health Centre, Wadianagar, No 57; Cooks Road Ayanavaram; Chennai  23",13.0993089,80.2515437,735.8024843
S6-71-22,Ekangipuram,Semi-Tenable,71,1194,4478,6,"Ekangipuram, Ward 71, THIRU-VI-KA NAGAR, Chennai, Tamil Nadu, India",13.1032671,80.2453748,UPHC48,6,73,Wadianagar,"Urban Primary Health Centre, Wadianagar, No 57; Cooks Road Ayanavaram; Chennai  23",13.0993089,80.2515437,1125.950907
S6-71-23,Semathamman Colony,Un-Tenable,71,652,2349,6,"Semathamman Colony, Ward 71, THIRU-VI-KA NAGAR, Chennai, Tamil Nadu, India",13.1058126,80.2444165,UPHC48,6,73,Wadianagar,"Urban Primary Health Centre, Wadianagar, No 57; Cooks Road Ayanavaram; Chennai  23",13.0993089,80.2515437,1449.962909
S6-71-32,Adhisesha Nagar,Tenable,71,412,1428,6,"Adhisesha Nagar, Ward 71, THIRU-VI-KA NAGAR, Chennai, Tamil Nadu, India",13.1065119,80.2464203,UPHC48,6,73,Wadianagar,"Urban Primary Health Centre, Wadianagar, No 57; Cooks Road Ayanavaram; Chennai  23",13.0993089,80.2515437,1468.257775
S6-70-19,Arunthathi Nagar I,Semi-Tenable,70,566,2217,6,"Arunthathi Nagar I, Ward 70, THIRU-VI-KA NAGAR, Chennai, Tamil Nadu, India",13.1074094,80.2512989,UPHC48,6,73,Wadianagar,"Urban Primary Health Centre, Wadianagar, No 57; Cooks Road Ayanavaram; Chennai  23",13.0993089,80.2515437,1164.607513
S6-70-20,Arunthathi Nagar II,Semi-Tenable,70,400,1654,6,"Arunthathi Nagar II, Ward 70, THIRU-VI-KA NAGAR, Chennai, Tamil Nadu, India",13.1074094,80.2512989,UPHC48,6,73,Wadianagar,"Urban Primary Health Centre, Wadianagar, No 57; Cooks Road Ayanavaram; Chennai  23",13.0993089,80.2515437,1164.607513
S6-76-67,K.M. Garden,Tenable,76,1104,4548,6,"K.M. Garden, Ward 76, THIRU-VI-KA NAGAR, Chennai, Tamil Nadu, India",13.0944623,80.2600368,UPHC52,6,76,CS Nagar,"Urban Primary Health Centre, CS Nagar, No 1; Sachidhanandam St; Kosapet; Chennai  12",13.0962231,80.2556528,666.5656146
S6-76-70,Ramanujam Garden,Tenable,76,25,102,6,"Ramanujam Garden, Ward 76, THIRU-VI-KA NAGAR, Chennai, Tamil Nadu, India",13.0960065,80.2570181,UPHC52,6,76,CS Nagar,"Urban Primary Health Centre, CS Nagar, No 1; Sachidhanandam St; Kosapet; Chennai  12",13.0962231,80.2556528,410.5493108
S6-73-51,Pensioners Lane,Tenable,73,275,1323,6,"Pensioners Lane, Ward 73, THIRU-VI-KA NAGAR, Chennai, Tamil Nadu, India",13.098975,80.2558128,UPHC52,6,76,CS Nagar,"Urban Primary Health Centre, CS Nagar, No 1; Sachidhanandam St; Kosapet; Chennai  12",13.0962231,80.2556528,404.3659132
S6-72-43,V.O.C Nagar,Tenable,72,567,2388,6,"V.O.C Nagar, Ward 72, THIRU-VI-KA NAGAR, Chennai, Tamil Nadu, India",13.1057185,80.2612958,UPHC52,6,76,CS Nagar,"Urban Primary Health Centre, CS Nagar, No 1; Sachidhanandam St; Kosapet; Chennai  12",13.0962231,80.2556528,1539.814111
S6-77-74,Kattur Nallamuthu Street,Tenable,77,26,125,6,"Kattur Nallamuthu Street, Ward 77, THIRU-VI-KA NAGAR, Chennai, Tamil Nadu, India",13.0946789,80.2636159,UPHC53,6,77,KPPark,"Urban Primary Health Centre, KPPark, Demellows Road; Pulienthope; Chennai  112",13.0952953,80.2676807,610.9054573
S6-73-56,Gray Nagar,Tenable,73,119,603,6,"Gray Nagar, Ward 73, THIRU-VI-KA NAGAR, Chennai, Tamil Nadu, India",13.1001556,80.2666298,UPHC53,6,77,KPPark,"Urban Primary Health Centre, KPPark, Demellows Road; Pulienthope; Chennai  112",13.0952953,80.2676807,867.6628912
S6-72-46,Narasimman Nagar,Tenable,72,238,957,6,"Narasimman Nagar, Ward 72, THIRU-VI-KA NAGAR, Chennai, Tamil Nadu, India",13.1044292,80.2666298,UPHC53,6,77,KPPark,"Urban Primary Health Centre, KPPark, Demellows Road; Pulienthope; Chennai  112",13.0952953,80.2676807,1567.595223
S7-79-2,Oragadam Colony,Untenable,79,370,1344,7,"Oragadam Colony, Ward 79, AMBATTUR, Chennai, Tamil Nadu, India",13.129026,80.1548021,UPHC55,7,79,Oragadam,"Urban Primary Health Centre, Oragadam, No 26; Gandhi High Road; Oragadam; Ambattur; Chennai  50",13.1216612,80.1514609,959.8062418
S7-79-6,"Venkateswara Nagar
Extension",Tenable,79,496,1841,7,"Venkateswara Nagar
Extension, Ward 79, AMBATTUR, Chennai, Tamil Nadu, India",13.133094,80.1498362,UPHC55,7,79,Oragadam,"Urban Primary Health Centre, Oragadam, No 26; Gandhi High Road; Oragadam; Ambattur; Chennai  50",13.1216612,80.1514609,1709.30481
S7-79-3,Lakshmi Amman Nagar,Untenable,79,296,1057,7,"Lakshmi Amman Nagar, Ward 79, AMBATTUR, Chennai, Tamil Nadu, India",13.1349953,80.152976,UPHC55,7,79,Oragadam,"Urban Primary Health Centre, Oragadam, No 26; Gandhi High Road; Oragadam; Ambattur; Chennai  50",13.1216612,80.1514609,1647.971954
S7-79-1,Oragadam,Tenable,79,749,2698,7,"Oragadam, Ward 79, AMBATTUR, Chennai, Tamil Nadu, India",13.1375403,80.1539697,UPHC55,7,79,Oragadam,"Urban Primary Health Centre, Oragadam, No 26; Gandhi High Road; Oragadam; Ambattur; Chennai  50",13.1216612,80.1514609,1940.371704
S7-82-15,"Menambedu, Munusamy Koil Street",Tenable,82,186,609,7,"Menambedu, Munusamy Koil Street, Ward 82, AMBATTUR, Chennai, Tamil Nadu, India",13.1206712,80.1647503,UPHC56,7,80,Meenabedu,"Urban Primary Health Centre, Meenabedu, No 1 Kvk Samy Street; Siddha Oragadam; Ambattur; Chennai 53",13.1243841,80.1613282,693.526681
S7-82-16,"Menambedu, Sabari Iyyappan Nagar",Tenable,82,101,351,7,"Menambedu, Sabari Iyyappan Nagar, Ward 82, AMBATTUR, Chennai, Tamil Nadu, India",13.1206712,80.1647503,UPHC56,7,80,Meenabedu,"Urban Primary Health Centre, Meenabedu, No 1 Kvk Samy Street; Siddha Oragadam; Ambattur; Chennai 53",13.1243841,80.1613282,693.526681
S7-82-17,"Menambedu,  Indian Bank Colony",Untenable,82,58,189,7,"Menambedu,  Indian Bank Colony, Ward 82, AMBATTUR, Chennai, Tamil Nadu, India",13.1206712,80.1647503,UPHC56,7,80,Meenabedu,"Urban Primary Health Centre, Meenabedu, No 1 Kvk Samy Street; Siddha Oragadam; Ambattur; Chennai 53",13.1243841,80.1613282,693.526681
S7-79-4,S.V.Nagar,Tenable,79,353,1258,7,"S.V.Nagar, Ward 79, AMBATTUR, Chennai, Tamil Nadu, India",13.1303062,80.1573763,UPHC56,7,80,Meenabedu,"Urban Primary Health Centre, Meenabedu, No 1 Kvk Samy Street; Siddha Oragadam; Ambattur; Chennai 53",13.1243841,80.1613282,1044.789052
S7-82-20,Kalli Kuppam,Tenable,82,110,361,7,"Kalli Kuppam, Ward 82, AMBATTUR, Chennai, Tamil Nadu, India",13.136693,80.169371,UPHC56,7,80,Meenabedu,"Urban Primary Health Centre, Meenabedu, No 1 Kvk Samy Street; Siddha Oragadam; Ambattur; Chennai 53",13.1243841,80.1613282,1951.613338
S7-82-14,"Kallikuppam,  Sakthi Nagar",Tenable,82,101,315,7,"Kallikuppam,  Sakthi Nagar, Ward 82, AMBATTUR, Chennai, Tamil Nadu, India",13.1376946,80.167627,UPHC56,7,80,Meenabedu,"Urban Primary Health Centre, Meenabedu, No 1 Kvk Samy Street; Siddha Oragadam; Ambattur; Chennai 53",13.1243841,80.1613282,1872.953743
S7-82-11,"Kallikuppam, Srinivasa Nagar",Tenable,82,63,203,7,"Kallikuppam, Srinivasa Nagar, Ward 82, AMBATTUR, Chennai, Tamil Nadu, India",13.1398583,80.1683246,UPHC56,7,80,Meenabedu,"Urban Primary Health Centre, Meenabedu, No 1 Kvk Samy Street; Siddha Oragadam; Ambattur; Chennai 53",13.1243841,80.1613282,2210.645569
S7-85-50,"Kamarajapuram , Part II",Tenable,85,369,1374,7,"Kamarajapuram , Part II, Ward 85, AMBATTUR, Chennai, Tamil Nadu, India",13.1069309,80.1547203,UPHC57,7,81,Venkatapuram,"Urban Primary Health Centre, Venkatapuram, South Park Street; Chennai 53",13.1176818,80.1535978,1631.814808
S7-85-51,"Kamarajapuram , Part I",Tenable,85,282,1073,7,"Kamarajapuram , Part I, Ward 85, AMBATTUR, Chennai, Tamil Nadu, India",13.1069309,80.1547203,UPHC57,7,81,Venkatapuram,"Urban Primary Health Centre, Venkatapuram, South Park Street; Chennai 53",13.1176818,80.1535978,1631.814808
S7-85-53,"Kamarajapuram , Sugadhara Paniyalar Kudiyiruppu",Tenable,85,121,496,7,"Kamarajapuram , Sugadhara Paniyalar Kudiyiruppu, Ward 85, AMBATTUR, Chennai, Tamil Nadu, India",13.1069309,80.1547203,UPHC57,7,81,Venkatapuram,"Urban Primary Health Centre, Venkatapuram, South Park Street; Chennai 53",13.1176818,80.1535978,1631.814808
S7-85-55,M.K.B Nagar,Tenable,85,529,1964,7,"M.K.B Nagar, Ward 85, AMBATTUR, Chennai, Tamil Nadu, India",13.1070595,80.1487895,UPHC57,7,81,Venkatapuram,"Urban Primary Health Centre, Venkatapuram, South Park Street; Chennai 53",13.1176818,80.1535978,1728.752703
S7-85-57,Shivanantha Nagar,Tenable,85,481,1685,7,"Shivanantha Nagar, Ward 85, AMBATTUR, Chennai, Tamil Nadu, India",13.1071398,80.1508828,UPHC57,7,81,Venkatapuram,"Urban Primary Health Centre, Venkatapuram, South Park Street; Chennai 53",13.1176818,80.1535978,1471.353173
S7-85-52,Dobi Colony,Tenable,85,257,976,7,"Dobi Colony, Ward 85, AMBATTUR, Chennai, Tamil Nadu, India",13.1074979,80.1537504,UPHC57,7,81,Venkatapuram,"Urban Primary Health Centre, Venkatapuram, South Park Street; Chennai 53",13.1176818,80.1535978,1467.672276
S7-85-49,Ramapuram,Tenable,85,218,794,7,"Ramapuram, Ward 85, AMBATTUR, Chennai, Tamil Nadu, India",13.1097793,80.1547203,UPHC57,7,81,Venkatapuram,"Urban Primary Health Centre, Venkatapuram, South Park Street; Chennai 53",13.1176818,80.1535978,1148.163558
S7-85-56,Teachers Colony,Tenable,85,563,1962,7,"Teachers Colony, Ward 85, AMBATTUR, Chennai, Tamil Nadu, India",13.1106736,80.150185,UPHC57,7,81,Venkatapuram,"Urban Primary Health Centre, Venkatapuram, South Park Street; Chennai 53",13.1176818,80.1535978,1183.722892
S7-81-9,Indira Nagar,Tenable,81,372,1266,7,"Indira Nagar, Ward 81, AMBATTUR, Chennai, Tamil Nadu, India",13.1153159,80.1505339,UPHC57,7,81,Venkatapuram,"Urban Primary Health Centre, Venkatapuram, South Park Street; Chennai 53",13.1176818,80.1535978,615.7245608
S7-84-40,"Pattravakkam, Yadavel Street",Tenable,84,37,123,7,"Pattravakkam, Yadavel Street, Ward 84, AMBATTUR, Chennai, Tamil Nadu, India",13.1070009,80.1699687,UPHC58,7,83,Korattur,"Urban Primary Health Centre, Korattur, No 32; Tnhb Street; 32Nd; Pakthavatchalam School Back Side; Korattur Ambattur; Chennai  50",13.119333,80.1679105,2380.2144
S7-84-43,"Pattravakkam, Kanniyamman Koil Street",Tenable,84,122,390,7,"Pattravakkam, Kanniyamman Koil Street, Ward 84, AMBATTUR, Chennai, Tamil Nadu, India",13.1103786,80.1686165,UPHC58,7,83,Korattur,"Urban Primary Health Centre, Korattur, No 32; Tnhb Street; 32Nd; Pakthavatchalam School Back Side; Korattur Ambattur; Chennai  50",13.119333,80.1679105,2385.6304
S7-84-44,"Pattravakkam, Kannan Koil Street",Tenable,84,66,236,7,"Pattravakkam, Kannan Koil Street, Ward 84, AMBATTUR, Chennai, Tamil Nadu, India",13.1104727,80.1675051,UPHC58,7,83,Korattur,"Urban Primary Health Centre, Korattur, No 32; Tnhb Street; 32Nd; Pakthavatchalam School Back Side; Korattur Ambattur; Chennai  50",13.119333,80.1679105,2471.694957
S7-84-39,"Pattravakkam, Mariyamman Koil Street",Untenable,84,67,198,7,"Pattravakkam, Mariyamman Koil Street, Ward 84, AMBATTUR, Chennai, Tamil Nadu, India",13.1105817,80.1686486,UPHC58,7,83,Korattur,"Urban Primary Health Centre, Korattur, No 32; Tnhb Street; 32Nd; Pakthavatchalam School Back Side; Korattur Ambattur; Chennai  50",13.119333,80.1679105,2407.877747
S7-83-28,Sivalingapuram,Tenable,83,147,481,7,"Sivalingapuram, Ward 83, AMBATTUR, Chennai, Tamil Nadu, India",13.1138563,80.1868091,UPHC58,7,83,Korattur,"Urban Primary Health Centre, Korattur, No 32; Tnhb Street; 32Nd; Pakthavatchalam School Back Side; Korattur Ambattur; Chennai  50",13.119333,80.1679105,2414.45131
S7-82-18,"Karukku , New Street",Tenable,82,112,349,7,"Karukku , New Street, Ward 82, AMBATTUR, Chennai, Tamil Nadu, India",13.11713,80.1708936,UPHC58,7,83,Korattur,"Urban Primary Health Centre, Korattur, No 32; Tnhb Street; 32Nd; Pakthavatchalam School Back Side; Korattur Ambattur; Chennai  50",13.119333,80.1679105,504.0619722
S7-82-19,"Karukku , Old Street",Tenable,82,108,336,7,"Karukku , Old Street, Ward 82, AMBATTUR, Chennai, Tamil Nadu, India",13.1188516,80.1712952,UPHC58,7,83,Korattur,"Urban Primary Health Centre, Korattur, No 32; Tnhb Street; 32Nd; Pakthavatchalam School Back Side; Korattur Ambattur; Chennai  50",13.119333,80.1679105,428.8929913
S7-82-12,"Kallikuppam, Gangai Nagar",Untenable,82,61,186,7,"Kallikuppam, Gangai Nagar, Ward 82, AMBATTUR, Chennai, Tamil Nadu, India",13.132094,80.17181,UPHC58,7,83,Korattur,"Urban Primary Health Centre, Korattur, No 32; Tnhb Street; 32Nd; Pakthavatchalam School Back Side; Korattur Ambattur; Chennai  50",13.119333,80.1679105,1691.137852
S7-82-13,"Kallikuppam,  Muthamil Nagar",Tenable,82,92,270,7,"Kallikuppam,  Muthamil Nagar, Ward 82, AMBATTUR, Chennai, Tamil Nadu, India",13.1324522,80.1736169,UPHC58,7,83,Korattur,"Urban Primary Health Centre, Korattur, No 32; Tnhb Street; 32Nd; Pakthavatchalam School Back Side; Korattur Ambattur; Chennai  50",13.119333,80.1679105,1945.174015
S3-24-16,Annai Indira Nagar,Tenable,24,739,2993,3,"Annai Indira Nagar, Ward 24, MADHAVARAM, Chennai, Tamil Nadu, India",13.1428196,80.1805318,UPHC58,7,83,Korattur,"Urban Primary Health Centre, Korattur, No 32; Tnhb Street; 32Nd; Pakthavatchalam School Back Side; Korattur Ambattur; Chennai  50",13.119333,80.1679105,3328.085735
S7-86-61,"Athipet , Periya Colony",Tenable,86,210,670,7,"Athipet , Periya Colony, Ward 86, AMBATTUR, Chennai, Tamil Nadu, India",13.0895523,80.1564646,UPHC60,7,86,Athipet,"Urban Primary Health Centre, Athipet, Chinna Colony; Athipet;Ambattur; Chennai  53",13.091333,80.1593008,860.92163
S7-86-60,"Athipet , Chinna Colony",Tenable,86,231,759,7,"Athipet , Chinna Colony, Ward 86, AMBATTUR, Chennai, Tamil Nadu, India",13.0955964,80.1525405,UPHC60,7,86,Athipet,"Urban Primary Health Centre, Athipet, Chinna Colony; Athipet;Ambattur; Chennai  53",13.091333,80.1593008,1277.752706
S7-86-62,Ambattur Kuppam,Tenable,86,203,631,7,"Ambattur Kuppam, Ward 86, AMBATTUR, Chennai, Tamil Nadu, India",13.09581,80.1557541,UPHC60,7,86,Athipet,"Urban Primary Health Centre, Athipet, Chinna Colony; Athipet;Ambattur; Chennai  53",13.091333,80.1593008,1000.434777
S7-86-63,Athipet Kuppam,Tenable,86,67,209,7,"Athipet Kuppam, Ward 86, AMBATTUR, Chennai, Tamil Nadu, India",13.0970153,80.1561157,UPHC60,7,86,Athipet,"Urban Primary Health Centre, Athipet, Chinna Colony; Athipet;Ambattur; Chennai  53",13.091333,80.1593008,1995.596475
S7-85-54,Mangalapuram,Tenable,85,469,1700,7,"Mangalapuram, Ward 85, AMBATTUR, Chennai, Tamil Nadu, India",13.1030858,80.165883,UPHC60,7,86,Athipet,"Urban Primary Health Centre, Athipet, Chinna Colony; Athipet;Ambattur; Chennai  53",13.091333,80.1593008,2048.02938
S7-84-42,"Pattravakkam, Braminar Street",Tenable,84,89,292,7,"Pattravakkam, Braminar Street, Ward 84, AMBATTUR, Chennai, Tamil Nadu, India",13.1073021,80.167145,UPHC60,7,86,Athipet,"Urban Primary Health Centre, Athipet, Chinna Colony; Athipet;Ambattur; Chennai  53",13.091333,80.1593008,2524.604199
S8-99-20,Satya sai Nagar New 2,untenable,99,188,664,8,"Satya sai Nagar New 2, Ward 99, ANNA NAGAR, Chennai, Tamil Nadu, India",13.0861352,80.2032262,UPHC61,7,89,Padi Round Building,"Urban Primary Health Centre, Padi Round Building, Tvs Avenue Main Road; Near Ch Public School; Chennai  101",13.089278,80.1884204,1874.169434
S8-99-23,Satya sai Nagar New 1,untenable,99,159,539,8,"Satya sai Nagar New 1, Ward 99, ANNA NAGAR, Chennai, Tamil Nadu, India",13.0861352,80.2032262,UPHC61,7,89,Padi Round Building,"Urban Primary Health Centre, Padi Round Building, Tvs Avenue Main Road; Near Ch Public School; Chennai  101",13.089278,80.1884204,1874.169434
S7-88-69,Dever Nagar,Tenable,88,157,595,7,"Dever Nagar, Ward 88, AMBATTUR, Chennai, Tamil Nadu, India",13.0917969,80.1882371,UPHC61,7,89,Padi Round Building,"Urban Primary Health Centre, Padi Round Building, Tvs Avenue Main Road; Near Ch Public School; Chennai  101",13.089278,80.1884204,477.4407173
S7-84-37,"Koratur, Pothiyamman Koil Street",Tenable,84,190,629,7,"Koratur, Pothiyamman Koil Street, Ward 84, AMBATTUR, Chennai, Tamil Nadu, India",13.1021419,80.1784392,UPHC61,7,89,Padi Round Building,"Urban Primary Health Centre, Padi Round Building, Tvs Avenue Main Road; Near Ch Public School; Chennai  101",13.089278,80.1884204,2852.67168
S7-84-35,"Koratur, Chavadi Street",Tenable,84,44,134,7,"Koratur, Chavadi Street, Ward 84, AMBATTUR, Chennai, Tamil Nadu, India",13.1030148,80.1815607,UPHC61,7,89,Padi Round Building,"Urban Primary Health Centre, Padi Round Building, Tvs Avenue Main Road; Near Ch Public School; Chennai  101",13.089278,80.1884204,2520.283999
S7-84-32,"Koratur, Station Road",Untenable,84,67,202,7,"Koratur, Station Road, Ward 84, AMBATTUR, Chennai, Tamil Nadu, India",13.1030608,80.1794,UPHC61,7,89,Padi Round Building,"Urban Primary Health Centre, Padi Round Building, Tvs Avenue Main Road; Near Ch Public School; Chennai  101",13.089278,80.1884204,2759.510857
S7-93-83,PadiKuppam,Untenable,93,364,1416,7,"PadiKuppam, Ward 93, AMBATTUR, Chennai, Tamil Nadu, India",13.0769339,80.1895988,UPHC63,7,93,Mugappair East,"Urban Primary Health Centre, Mugappair East, Veeramamunivar Street; Mugappair; Chennai  37",13.0822911,80.1860916,1297.504344
S8-94-1,Rajamangalam,Tenable,94,651,2554,8,"Rajamangalam, Ward 94, ANNA NAGAR, Chennai, Tamil Nadu, India",13.1120692,80.2052895,UPHC64,8,94,Rajamangalam,"Urban Primary Health Centre, Rajamangalam, 36; Rajamangalam Ist Main Rd; Villivakkam; Chennai  49",13.1155606,80.2009719,758.1657541
S7-83-30,"Agraharam, Kandigai",Tenable,83,68,224,7,"Agraharam, Kandigai, Ward 83, AMBATTUR, Chennai, Tamil Nadu, India",13.1183428,80.1923885,UPHC64,8,94,Rajamangalam,"Urban Primary Health Centre, Rajamangalam, 36; Rajamangalam Ist Main Rd; Villivakkam; Chennai  49",13.1155606,80.2009719,1551.012962
S8-94-9,Balaramapuram,Tenable,94,74,261,8,"Balaramapuram, Ward 94, ANNA NAGAR, Chennai, Tamil Nadu, India",13.1083621,80.1977404,UPHC65,8,95,Agathiyar Nagar,"Urban Primary Health Centre, Agathiyar Nagar, No1; Venugopal St; Villiwakkam; Chennai  49",13.1043441,80.2007607,766.5379549
S8-97-12,Solai 3rd Street,untenable,97,129,408,8,"Solai 3rd Street, Ward 97, ANNA NAGAR, Chennai, Tamil Nadu, India",13.0899643,80.2296212,UPHC68,8,97,Ayanvaram,"Urban Primary Health Centre, Ayanvaram, United India Nagar; Ayanavaram; Chennai  23",13.0986751,80.2302478,1237.837809
S8-101-25,Annai Sathya Nagar,Tenable,101,39,154,8,"Annai Sathya Nagar, Ward 101, ANNA NAGAR, Chennai, Tamil Nadu, India",13.0951916,80.2202802,UPHC68,8,97,Ayanvaram,"Urban Primary Health Centre, Ayanvaram, United India Nagar; Ayanavaram; Chennai  23",13.0986751,80.2302478,1558.464265
S10-127-45,Mettukulam,Tenable,127,325,1185,10,"Mettukulam, Ward 127, KODAMBAKKAM, Chennai, Tamil Nadu, India",13.07406,80.19204,UPHC70,8,100,Aminjikarai West,"Urban Primary Health Centre, Aminjikarai West, 1; Pillaiyar Koil St; Naduvangarai; Chennai  40",13.0728642,80.1977678,821.8582232
S8-99-19,Thiruvenkadaiah Street,Tenable,99,265,933,8,"Thiruvenkadaiah Street, Ward 99, ANNA NAGAR, Chennai, Tamil Nadu, India",13.0849557,80.2101342,UPHC71,8,101,Bharathi Puram,"Urban Primary Health Centre, Bharathi Puram, 4th St; Shenoy Nagar; Chennai  30",13.0787523,80.2204694,1815.901267
S8-107-48,Apparao Garden,untenable,107,265,929,8,"Apparao Garden, Ward 107, ANNA NAGAR, Chennai, Tamil Nadu, India",13.069331,80.2303261,UPHC72,8,101; 102,Shenoy Nagar,"Urban Primary Health Centre, Shenoy Nagar, 43; Pulla Avenue; Shenoy Nagar; Chennai  30",13.0745303,80.224757,1282.37075
S8-106-45,Vellala Theru,untenable,106,185,665,8,"Vellala Theru, Ward 106, ANNA NAGAR, Chennai, Tamil Nadu, India",13.0730803,80.2262737,UPHC72,8,101; 102,Shenoy Nagar,"Urban Primary Health Centre, Shenoy Nagar, 43; Pulla Avenue; Shenoy Nagar; Chennai  30",13.0745303,80.224757,331.3623965
S8-103-28,Temple Street,Tenable,103,63,251,8,"Temple Street, Ward 103, ANNA NAGAR, Chennai, Tamil Nadu, India",13.0802288,80.2343584,UPHC73,8,103,Kilpauk,"Urban Primary Health Centre, Kilpauk, No1; Temple St; New Avadi road; Kilpauk; Chennai  10",13.0802606,80.235777,244.2228037
S8-104-33,Sastri Nagar,Tenable,104,32,127,8,"Sastri Nagar, Ward 104, ANNA NAGAR, Chennai, Tamil Nadu, India",13.0778405,80.2509504,UPHC74,8,104,Purasaiwakkam,"Urban Primary Health Centre, Purasaiwakkam, Sundharam pillai street;Purusaivakkam; Chennai  07",13.088729,80.2531632,1544.620707
S8-104-37,Ponnan Street,Tenable,104,71,278,8,"Ponnan Street, Ward 104, ANNA NAGAR, Chennai, Tamil Nadu, India",13.0903561,80.2521839,UPHC74,8,104,Purasaiwakkam,"Urban Primary Health Centre, Purasaiwakkam, Sundharam pillai street;Purusaivakkam; Chennai  07",13.088729,80.2531632,276.3528423
S6-75-65,Venkatammal Samathi,Tenable,75,94,304,6,"Venkatammal Samathi, Ward 75, THIRU-VI-KA NAGAR, Chennai, Tamil Nadu, India",13.0913999,80.2526219,UPHC74,8,104,Purasaiwakkam,"Urban Primary Health Centre, Purasaiwakkam, Sundharam pillai street;Purusaivakkam; Chennai  07",13.088729,80.2531632,346.1508526
S6-75-62,Briklin Road,Un-Tenable,75,33,109,6,"Briklin Road, Ward 75, THIRU-VI-KA NAGAR, Chennai, Tamil Nadu, India",13.0919371,80.2510425,UPHC74,8,104,Purasaiwakkam,"Urban Primary Health Centre, Purasaiwakkam, Sundharam pillai street;Purusaivakkam; Chennai  07",13.088729,80.2531632,575.2517745
S9-109-4,Thiruvengadapuram,Tenable,109,81,281,9,"Thiruvengadapuram, Ward 109, TEY NAM PET, Chennai, Tamil Nadu, India",13.0656025,80.2286459,UPHC76,8,106,Aminjikarai East,"Urban Primary Health Centre, Aminjikarai East, Collectrate Colony 6th Cross St; Aminjikarai ; Chennai  29",13.0686451,80.2199833,1085.543815
S9-109-3,West Namachivaya puram,UnTenable,109,1025,3710,9,"West Namachivaya puram, Ward 109, TEY NAM PET, Chennai, Tamil Nadu, India",13.0674486,80.2303886,UPHC76,8,106,Aminjikarai East,"Urban Primary Health Centre, Aminjikarai East, Collectrate Colony 6th Cross St; Aminjikarai ; Chennai  29",13.0686451,80.2199833,1494.504873
S9-109-1,East Namachivaya puram,Untenable,109,933,3575,9,"East Namachivaya puram, Ward 109, TEY NAM PET, Chennai, Tamil Nadu, India",13.0675279,80.2324799,UPHC76,8,106,Aminjikarai East,"Urban Primary Health Centre, Aminjikarai East, Collectrate Colony 6th Cross St; Aminjikarai ; Chennai  29",13.0686451,80.2199833,1679.016145
S8-108-50,Azad Nagar,Tenable,108,158,589,8,"Azad Nagar, Ward 108, ANNA NAGAR, Chennai, Tamil Nadu, India",13.0682104,80.2177969,UPHC76,8,106,Aminjikarai East,"Urban Primary Health Centre, Aminjikarai East, Collectrate Colony 6th Cross St; Aminjikarai ; Chennai  29",13.0686451,80.2199833,289.5631791
S9-110-5,Pushpa Nagar,Tenable,110,100,341,9,"Pushpa Nagar, Ward 110, TEY NAM PET, Chennai, Tamil Nadu, India",13.0588526,80.2384048,UPHC77,8,107,Chetpet,"Urban Primary Health Centre, Chetpet, No14  School Rd; Chetpet; Chennai  31",13.0719366,80.2438146,2212.772199
S10-142-38,"Kothavalchavadi street,  Sasthiri Nagar",Untenable,142,52,187,10,"Kothavalchavadi street,  Sasthiri Nagar, Ward 142, KODAMBAKKAM, Chennai, Tamil Nadu, India",13.0217622,80.216173,UPHC78,9,109,Periyar Nagar,"Urban Primary Health Centre, Periyar Nagar, 47/17;Sherfudeen St; Choolaimedu; Chennai  94",13.0248581,80.2196865,663.9580378
S10-142-39,"Kothavalchavadi street,  Tenament",Untenable,142,160,542,10,"Kothavalchavadi street,  Tenament , Ward 142, KODAMBAKKAM, Chennai, Tamil Nadu, India",13.0217622,80.216173,UPHC78,9,109,Periyar Nagar,"Urban Primary Health Centre, Periyar Nagar, 47/17;Sherfudeen St; Choolaimedu; Chennai  94",13.0248581,80.2196865,663.9580378
S10-139-81,Veethi Mariyamman Koil Street,Tenable,139,144,528,10,"Veethi Mariyamman Koil Street, Ward 139, KODAMBAKKAM, Chennai, Tamil Nadu, India",13.0272719,80.2123123,UPHC78,9,109,Periyar Nagar,"Urban Primary Health Centre, Periyar Nagar, 47/17;Sherfudeen St; Choolaimedu; Chennai  94",13.0248581,80.2196865,1241.065054
S10-139-8,Appadurai Street,Untenable,139,20,71,10,"Appadurai Street, Ward 139, KODAMBAKKAM, Chennai, Tamil Nadu, India",13.0275502,80.2130863,UPHC78,9,109,Periyar Nagar,"Urban Primary Health Centre, Periyar Nagar, 47/17;Sherfudeen St; Choolaimedu; Chennai  94",13.0248581,80.2196865,986.7978365
S10-139-14,Bharathi Block,Untenable,139,28,92,10,"Bharathi Block, Ward 139, KODAMBAKKAM, Chennai, Tamil Nadu, India",13.028347,80.2129595,UPHC78,9,109,Periyar Nagar,"Urban Primary Health Centre, Periyar Nagar, 47/17;Sherfudeen St; Choolaimedu; Chennai  94",13.0248581,80.2196865,1096.641971
S9-113-9,Gangaikarai Puram,Untenable,113,341,1201,9,"Gangaikarai Puram, Ward 113, TEY NAM PET, Chennai, Tamil Nadu, India",13.0505203,80.2439809,UPHC80,9,"1,11,113",Thousand Lights,"Urban Primary Health Centre, Thousand Lights, 82; Azizmulk 2 Street; Thousand Light; Chennai  06",13.0555484,80.2523934,1816.985995
S9-113-11,Grama Street,Tenable,113,24,96,9,"Grama Street, Ward 113, TEY NAM PET, Chennai, Tamil Nadu, India",13.0536664,80.2464185,UPHC80,9,"1,11,113",Thousand Lights,"Urban Primary Health Centre, Thousand Lights, 82; Azizmulk 2 Street; Thousand Light; Chennai  06",13.0555484,80.2523934,1381.076692
S10-134-11,Aziz Nagar,Untenable,134,78,333,10,"Aziz Nagar, Ward 134, KODAMBAKKAM, Chennai, Tamil Nadu, India",13.0470923,80.2286459,UPHC81,9,112,Vadapalani East,"Urban Primary Health Centre, Vadapalani East, 1/3; Trustpuram Xth Street Kodampakkam Chennai  002",13.0490759,80.2297714,498.1300185
S10-134-3,Akbarabath,Untenable,134,157,615,10,"Akbarabath, Ward 134, KODAMBAKKAM, Chennai, Tamil Nadu, India",13.0510209,80.2289944,UPHC81,9,112,Vadapalani East,"Urban Primary Health Centre, Vadapalani East, 1/3; Trustpuram Xth Street Kodampakkam Chennai  002",13.0490759,80.2297714,325.7545009
S10-134-29,Kamarajar Colony,Tenable,134,1246,4956,10,"Kamarajar Colony, Ward 134, KODAMBAKKAM, Chennai, Tamil Nadu, India",13.0511915,80.2194087,UPHC81,9,112,Vadapalani East,"Urban Primary Health Centre, Vadapalani East, 1/3; Trustpuram Xth Street Kodampakkam Chennai  002",13.0490759,80.2297714,1406.455922
S10-134-1,60 Kudusai,Tenable,134,179,712,10,"60 Kudusai, Ward 134, KODAMBAKKAM, Chennai, Tamil Nadu, India",13.0521019,80.2255286,UPHC81,9,112,Vadapalani East,"Urban Primary Health Centre, Vadapalani East, 1/3; Trustpuram Xth Street Kodampakkam Chennai  002",13.0490759,80.2297714,813.8704665
S10-134-15,Chinna Raja Pillai Thottam,Tenable,134,544,2199,10,"Chinna Raja Pillai Thottam, Ward 134, KODAMBAKKAM, Chennai, Tamil Nadu, India",13.0521019,80.2255286,UPHC81,9,112,Vadapalani East,"Urban Primary Health Centre, Vadapalani East, 1/3; Trustpuram Xth Street Kodampakkam Chennai  002",13.0490759,80.2297714,813.8704665
S10-134-60,Puliyurpuram,Tenable,134,639,2560,10,"Puliyurpuram, Ward 134, KODAMBAKKAM, Chennai, Tamil Nadu, India",13.0521019,80.2255286,UPHC81,9,112,Vadapalani East,"Urban Primary Health Centre, Vadapalani East, 1/3; Trustpuram Xth Street Kodampakkam Chennai  002",13.0490759,80.2297714,813.8704665
S10-134-78,Valliyammal Thottam,Untenable,134,75,270,10,"Valliyammal Thottam, Ward 134, KODAMBAKKAM, Chennai, Tamil Nadu, India",13.0521019,80.2255286,UPHC81,9,112,Vadapalani East,"Urban Primary Health Centre, Vadapalani East, 1/3; Trustpuram Xth Street Kodampakkam Chennai  002",13.0490759,80.2297714,813.8704665
S10-134-76,United India Colony,Tenable,134,39,143,10,"United India Colony, Ward 134, KODAMBAKKAM, Chennai, Tamil Nadu, India",13.0526818,80.2258574,UPHC81,9,112,Vadapalani East,"Urban Primary Health Centre, Vadapalani East, 1/3; Trustpuram Xth Street Kodampakkam Chennai  002",13.0490759,80.2297714,773.6585317
S9-114-15,Victoria Hostel Backside,Untenable,114,204,822,9,"Victoria Hostel Backside, Ward 114, TEY NAM PET, Chennai, Tamil Nadu, India",13.059193,80.2796399,UPHC82,9,114,Community College,"Urban Primary Health Centre, Community College, Community Nursing College; 34; Arunachalam St; Chpak; Chennai  05",13.0636208,80.2757971,1117.998902
S9-114-14,Lock Nagar,Untenable,114,93,368,9,"Lock Nagar, Ward 114, TEY NAM PET, Chennai, Tamil Nadu, India",13.0665441,80.2820148,UPHC82,9,114,Community College,"Urban Primary Health Centre, Community College, Community Nursing College; 34; Arunachalam St; Chpak; Chennai  05",13.0636208,80.2757971,979.3436027
S9-125-56,Kailasapuram,Tenable,125,287,1078,9,"Kailasapuram, Ward 125, TEY NAM PET, Chennai, Tamil Nadu, India",13.0418159,80.2774294,UPHC88,9,119; 121,Krishnampet,"Urban Primary Health Centre, Krishnampet, No1; Meccapuram; Main Street; Chennai  5",13.0463778,80.2756877,824.4971928
S9-121-36,Rotary Nagar,Tenable,121,102,390,9,"Rotary Nagar, Ward 121, TEY NAM PET, Chennai, Tamil Nadu, India",13.0448945,80.2764715,UPHC88,9,119; 121,Krishnampet,"Urban Primary Health Centre, Krishnampet, No1; Meccapuram; Main Street; Chennai  5",13.0463778,80.2756877,284.4699115
S9-116-18,Mattan Kuppam,tenable,116,381,1534,9,"Mattan Kuppam, Ward 116, TEY NAM PET, Chennai, Tamil Nadu, India",13.0530332,80.2794137,UPHC88,9,119; 121,Krishnampet,"Urban Primary Health Centre, Krishnampet, No1; Meccapuram; Main Street; Chennai  5",13.0463778,80.2756877,1004.402431
S9-122-37,Kavinjar Bharathidasan Road,Tenable,122,100,383,9,"Kavinjar Bharathidasan Road, Ward 122, TEY NAM PET, Chennai, Tamil Nadu, India",13.0353214,80.2497438,UPHC89,9,122; 123,Teynampet,"Urban Primary Health Centre, Teynampet, No 40; KBDasan Raod; Teynampet; Chennai  18",13.0375975,80.2512366,379.5834911
S9-117-23,Dr. Thomas Road,Tenable,117,549,1975,9,"Dr. Thomas Road, Ward 117, TEY NAM PET, Chennai, Tamil Nadu, India",13.037301,80.2442489,UPHC89,9,122; 123,Teynampet,"Urban Primary Health Centre, Teynampet, No 40; KBDasan Raod; Teynampet; Chennai  18",13.0375975,80.2512366,1107.386361
S9-118-31,Nallan Street,Tenable,118,40,156,9,"Nallan Street, Ward 118, TEY NAM PET, Chennai, Tamil Nadu, India",13.0423122,80.2519027,UPHC89,9,122; 123,Teynampet,"Urban Primary Health Centre, Teynampet, No 40; KBDasan Raod; Teynampet; Chennai  18",13.0375975,80.2512366,559.0009203
S9-117-22,S.S Puram,Untenable,117,142,609,9,"S.S Puram, Ward 117, TEY NAM PET, Chennai, Tamil Nadu, India",13.04281,80.2469385,UPHC89,9,122; 123,Teynampet,"Urban Primary Health Centre, Teynampet, No 40; KBDasan Raod; Teynampet; Chennai  18",13.0375975,80.2512366,1099.114705
S9-117-21,"Giriyappa Road , FP",Tenable,117,154,606,9,"Giriyappa Road , FP, Ward 117, TEY NAM PET, Chennai, Tamil Nadu, India",13.0443327,80.2467616,UPHC89,9,122; 123,Teynampet,"Urban Primary Health Centre, Teynampet, No 40; KBDasan Raod; Teynampet; Chennai  18",13.0375975,80.2512366,1267.04359
S9-117-30,Giriyappa Road Huts,UnTenable,117,934,4071,9,"Giriyappa Road Huts, Ward 117, TEY NAM PET, Chennai, Tamil Nadu, India",13.0443327,80.2467616,UPHC89,9,122; 123,Teynampet,"Urban Primary Health Centre, Teynampet, No 40; KBDasan Raod; Teynampet; Chennai  18",13.0375975,80.2512366,1267.04359
S9-123-44,Kanni koil puram,Tenable,123,75,293,9,"Kanni koil puram, Ward 123, TEY NAM PET, Chennai, Tamil Nadu, India",13.0323928,80.2592649,UPHC90,9,119; 123,Beemanampet,"Urban Primary Health Centre, Beemanampet, Multy Speciality; 29; C P Ramasamy Road; Alwarpet; Chennai  1",13.0342417,80.2570918,496.833219
S9-124-55,"Ramakrishnapuram,6th st",Tenable,124,559,2203,9,"Ramakrishnapuram,6th st, Ward 124, TEY NAM PET, Chennai, Tamil Nadu, India",13.0367482,80.2690725,UPHC91,9,124,Mylapore,"Urban Primary Health Centre, Mylapore, No 22; Mundakanniaman Koil St; Mylapore; Chennai  4",13.0367914,80.2676303,206.2304709
S9-124-62,Mosque st,Untenable,124,63,246,9,"Mosque st, Ward 124, TEY NAM PET, Chennai, Tamil Nadu, India",13.0299287,80.2698447,UPHC92,9,124; 125,Santhome,"Urban Primary Health Centre, Santhome, No 14A; Appu 2nd Lane; Mylapore; Chennai  4",13.0364123,80.2709698,853.4909158
S9-125-57,Arumugam pillai st,Untenable,125,142,545,9,"Arumugam pillai st, Ward 125, TEY NAM PET, Chennai, Tamil Nadu, India",13.0347921,80.2720067,UPHC92,9,124; 125,Santhome,"Urban Primary Health Centre, Santhome, No 14A; Appu 2nd Lane; Mylapore; Chennai  4",13.0364123,80.2709698,321.034922
S9-125-58,Rutherford puram,Untenable,125,242,994,9,"Rutherford puram, Ward 125, TEY NAM PET, Chennai, Tamil Nadu, India",13.0347921,80.2720067,UPHC92,9,124; 125,Santhome,"Urban Primary Health Centre, Santhome, No 14A; Appu 2nd Lane; Mylapore; Chennai  4",13.0364123,80.2709698,321.034922
S9-125-60,Mylai Mangolai,Tenable,125,109,437,9,"Mylai Mangolai, Ward 125, TEY NAM PET, Chennai, Tamil Nadu, India",13.0347921,80.2720067,UPHC92,9,124; 125,Santhome,"Urban Primary Health Centre, Santhome, No 14A; Appu 2nd Lane; Mylapore; Chennai  4",13.0364123,80.2709698,321.034922
S9-124-50,Nattan Thottam,Tenable,124,335,1333,9,"Nattan Thottam, Ward 124, TEY NAM PET, Chennai, Tamil Nadu, India",13.0403136,80.270555,UPHC92,9,124; 125,Santhome,"Urban Primary Health Centre, Santhome, No 14A; Appu 2nd Lane; Mylapore; Chennai  4",13.0364123,80.2709698,519.3130607
S10-129-68,Shanmuga Sundaram Street,Tenable,129,232,875,10,"Shanmuga Sundaram Street, Ward 129, KODAMBAKKAM, Chennai, Tamil Nadu, India",13.0613453,80.2024994,UPHC94,10,127,Koyambedu,"Urban Primary Health Centre, Koyambedu, No 44;  Natesa Nagar;  5Th Main Road;  Virugambakkam Chennai  92",13.0592841,80.1920156,1376.631432
S10-127-79,Vedha Nagar,Untenable,127,54,217,10,"Vedha Nagar, Ward 127, KODAMBAKKAM, Chennai, Tamil Nadu, India",13.06172,80.1920398,UPHC94,10,127,Koyambedu,"Urban Primary Health Centre, Koyambedu, No 44;  Natesa Nagar;  5Th Main Road;  Virugambakkam Chennai  92",13.0592841,80.1920156,761.8032288
S10-127-80,Vedhanagar II,Tenable,127,25,99,10,"Vedhanagar II, Ward 127, KODAMBAKKAM, Chennai, Tamil Nadu, India",13.06172,80.1920398,UPHC94,10,127,Koyambedu,"Urban Primary Health Centre, Koyambedu, No 44;  Natesa Nagar;  5Th Main Road;  Virugambakkam Chennai  92",13.0592841,80.1920156,761.8032288
S10-127-41,Kulasekarapuram,Tenable,127,218,870,10,"Kulasekarapuram, Ward 127, KODAMBAKKAM, Chennai, Tamil Nadu, India",13.062329,80.2033719,UPHC94,10,127,Koyambedu,"Urban Primary Health Centre, Koyambedu, No 44;  Natesa Nagar;  5Th Main Road;  Virugambakkam Chennai  92",13.0592841,80.1920156,1466.960596
S10-128-10,"AVM Colony, Virugambakkam",Untenable,128,44,167,10,"AVM Colony, Virugambakkam, Ward 128, KODAMBAKKAM, Chennai, Tamil Nadu, India",13.0512276,80.1969215,UPHC95,10,128,Virugambakkam,"Urban Primary Health Centre, Virugambakkam, No 77; Kamaraj Street; Virugambakkam; Chennai  92",13.0519964,80.1968184,112.847466
S10-128-20,East Vanniyar Street,tenable,128,197,719,10,"East Vanniyar Street, Ward 128, KODAMBAKKAM, Chennai, Tamil Nadu, India",13.0413564,80.1922381,UPHC96,10,129,Dasarathapuram,"Urban Primary Health Centre, Dasarathapuram, No 1 11; Dasaradhapuram; 8Thst; Saligramam;  Chennai  93",13.0441748,80.2010332,1306.750316
S10-131-31,"Kannigapuram , Kodambakkam",Tenable,131,147,513,10,"Kannigapuram , Kodambakkam, Ward 131, KODAMBAKKAM, Chennai, Tamil Nadu, India",13.0415534,80.2045922,UPHC96,10,129,Dasarathapuram,"Urban Primary Health Centre, Dasarathapuram, No 1 11; Dasaradhapuram; 8Thst; Saligramam;  Chennai  93",13.0441748,80.2010332,576.5384838
S10-131-54,New Vijayaraghavapuram,Tenable,131,196,749,10,"New Vijayaraghavapuram, Ward 131, KODAMBAKKAM, Chennai, Tamil Nadu, India",13.0446027,80.2002754,UPHC96,10,129,Dasarathapuram,"Urban Primary Health Centre, Dasarathapuram, No 1 11; Dasaradhapuram; 8Thst; Saligramam;  Chennai  93",13.0441748,80.2010332,232.4618177
S10-131-55,Old Vijayaraghavapuram,Tenable,131,290,1169,10,"Old Vijayaraghavapuram, Ward 131, KODAMBAKKAM, Chennai, Tamil Nadu, India",13.0446027,80.2002754,UPHC96,10,129,Dasarathapuram,"Urban Primary Health Centre, Dasarathapuram, No 1 11; Dasaradhapuram; 8Thst; Saligramam;  Chennai  93",13.0441748,80.2010332,232.4618177
S13-174-27,Five furloin road,un-Tenable,174,116,442,13,"Five furloin road, Ward 174, ADYAR, Chennai, Tamil Nadu, India",13.00047,80.2135828,UPHC98,10,131,FPAI,"Urban Primary Health Centre, FPAI, 138; Kannigapuram 1st street; KK nagar; Chennai  78",13.0046602,80.2202744,1421.84046
S13-174-70,Race Courcse Road,un-Tenable,174,46,163,13,"Race Courcse Road, Ward 174, ADYAR, Chennai, Tamil Nadu, India",13.0090327,80.2160634,UPHC98,10,131,FPAI,"Urban Primary Health Centre, FPAI, 138; Kannigapuram 1st street; KK nagar; Chennai  78",13.0046602,80.2202744,915.4467348
S13-171-24,Chinna Malai/LDG Road,Un-Tenable,171,468,1493,13,"Chinna Malai/LDG Road, Ward 171, ADYAR, Chennai, Tamil Nadu, India",13.0155045,80.226687,UPHC98,10,131,FPAI,"Urban Primary Health Centre, FPAI, 138; Kannigapuram 1st street; KK nagar; Chennai  78",13.0046602,80.2202744,1885.904933
S10-132-12,Bajanai Kovil Street,Tenable,132,436,1721,10,"Bajanai Kovil Street, Ward 132, KODAMBAKKAM, Chennai, Tamil Nadu, India",13.0453242,80.2135746,UPHC99,10,132,Ashoknagar,"Urban Primary Health Centre, Ashoknagar, 1 34; 35th St; Ashok Nagar; Chennai  83",13.0408313,80.2146197,617.611748
S9-117-25,South Boag Slum,Tenable,117,162,584,9,"South Boag Slum, Ward 117, TEY NAM PET, Chennai, Tamil Nadu, India",13.035791,80.2426014,UPHC102,10,136,TNagar West,"Urban Primary Health Centre, TNagar West, 5; Siva Gnanam Rd; TNagar; Chennai  17",13.0417591,80.2340761,1426.373301
S9-117-24,Sarangapani Street,UnTenable,117,31,118,9,"Sarangapani Street, Ward 117, TEY NAM PET, Chennai, Tamil Nadu, India",13.0492151,80.2377987,UPHC102,10,136,TNagar West,"Urban Primary Health Centre, TNagar West, 5; Siva Gnanam Rd; TNagar; Chennai  17",13.0417591,80.2340761,1126.810462
S9-113-12,Dharmapuram,Tenable,113,683,2753,9,"Dharmapuram, Ward 113, TEY NAM PET, Chennai, Tamil Nadu, India",13.0516804,80.2370108,UPHC102,10,136,TNagar West,"Urban Primary Health Centre, TNagar West, 5; Siva Gnanam Rd; TNagar; Chennai  17",13.0417591,80.2340761,1337.797534
S10-139-63,RV Nagar,Untenable,139,113,449,10,"RV Nagar, Ward 139, KODAMBAKKAM, Chennai, Tamil Nadu, India",13.0297705,80.2129595,UPHC104,10,138,Jafferkhanpet,"Urban Primary Health Centre, Jafferkhanpet, No 1 Ayyavu Street; Jafferkhan Pet; Chennai 83",13.0318579,80.2024148,1233.008602
S10-138-84,"Jafferkhanpet,Keeraithottam",Tenable,138,42,175,10,"Jafferkhanpet,Keeraithottam, Ward 138, KODAMBAKKAM, Chennai, Tamil Nadu, India",13.029936,80.2048005,UPHC104,10,138,Jafferkhanpet,"Urban Primary Health Centre, Jafferkhanpet, No 1 Ayyavu Street; Jafferkhan Pet; Chennai 83",13.0318579,80.2024148,442.2672393
S10-138-85,Jafferkhanpet,Tenable,138,33,154,10,"Jafferkhanpet, Ward 138, KODAMBAKKAM, Chennai, Tamil Nadu, India",13.029936,80.2048005,UPHC104,10,138,Jafferkhanpet,"Urban Primary Health Centre, Jafferkhanpet, No 1 Ayyavu Street; Jafferkhan Pet; Chennai 83",13.0318579,80.2024148,442.2672393
S10-138-6,Annai Sathya Nagar,Tenable,138,414,1687,10,"Annai Sathya Nagar, Ward 138, KODAMBAKKAM, Chennai, Tamil Nadu, India",13.0302696,80.1979676,UPHC104,10,138,Jafferkhanpet,"Urban Primary Health Centre, Jafferkhanpet, No 1 Ayyavu Street; Jafferkhan Pet; Chennai 83",13.0318579,80.2024148,698.131531
S10-137-13,Barathi Nagar,Tenable,137,446,1623,10,"Barathi Nagar, Ward 137, KODAMBAKKAM, Chennai, Tamil Nadu, India",13.0315897,80.1917508,UPHC104,10,138,Jafferkhanpet,"Urban Primary Health Centre, Jafferkhanpet, No 1 Ayyavu Street; Jafferkhan Pet; Chennai 83",13.0318579,80.2024148,1355.375175
S10-138-4,Ambedkar Colony,Tenable,138,1018,3564,10,"Ambedkar Colony, Ward 138, KODAMBAKKAM, Chennai, Tamil Nadu, India",13.0329993,80.2089503,UPHC104,10,138,Jafferkhanpet,"Urban Primary Health Centre, Jafferkhanpet, No 1 Ayyavu Street; Jafferkhan Pet; Chennai 83",13.0318579,80.2024148,1056.058869
S7-83-27,"Madanankuppam, Perumal Koil Street",Tenable,83,18,69,7,"Madanankuppam, Perumal Koil Street, Ward 83, AMBATTUR, Chennai, Tamil Nadu, India",13.135539,80.1878122,UPHC106,10,140,Kumaran Nagar,"Urban Primary Health Centre, Kumaran Nagar, No 1 Govindhan Road; West Mambalam; Chennai  33",13.1267829,80.2005101,2130.959964
S3-24-15,Bharathidasan Nagar,Tenable,24,638,2512,3,"Bharathidasan Nagar, Ward 24, MADHAVARAM, Chennai, Tamil Nadu, India",13.1458829,80.1861116,UPHC106,10,140,Kumaran Nagar,"Urban Primary Health Centre, Kumaran Nagar, No 1 Govindhan Road; West Mambalam; Chennai  33",13.1267829,80.2005101,3449.726557
S10-141-72,South Dhandabani Street,Tenable,141,18,73,10,"South Dhandabani Street, Ward 141, KODAMBAKKAM, Chennai, Tamil Nadu, India",13.0329184,80.2329895,UPHC107,10,141,CIT Nagar,"Urban Primary Health Centre, CIT Nagar, No54; 4th Main Road; CITNagar; Chennai  15",13.0290106,80.2328314,679.4878035
S11-146-15,Ganapathi Nagar,UnTenable,146,17,66,11,"Ganapathi Nagar, Ward 146, VALASARAVAKKAM, Chennai, Tamil Nadu, India",13.051719,80.1630924,UPHC109,11,146,Madhuravoyal,"Urban Primary Health Centre, Madhuravoyal, 285; Poonamalle High Rd; Madhuravoyal",13.062896,80.166343,1830.10049
S11-146-14,Dhana Lakshmi Nagar,UnTenable,146,721,3032,11,"Dhana Lakshmi Nagar, Ward 146, VALASARAVAKKAM, Chennai, Tamil Nadu, India",13.0542768,80.1648365,UPHC109,11,146,Madhuravoyal,"Urban Primary Health Centre, Madhuravoyal, 285; Poonamalle High Rd; Madhuravoyal",13.062896,80.166343,1348.606873
S11-147-17,Mettu Kuppam,Tenable,147,83,312,11,"Mettu Kuppam, Ward 147, VALASARAVAKKAM, Chennai, Tamil Nadu, India",13.0574433,80.1732077,UPHC109,11,146,Madhuravoyal,"Urban Primary Health Centre, Madhuravoyal, 285; Poonamalle High Rd; Madhuravoyal",13.062896,80.166343,1473.165069
S11-143-5,"Chinna Nolumbur, Union Road",Tenable,143,92,344,11,"Chinna Nolumbur, Union Road, Ward 143, VALASARAVAKKAM, Chennai, Tamil Nadu, India",13.0667259,80.169564,UPHC109,11,146,Madhuravoyal,"Urban Primary Health Centre, Madhuravoyal, 285; Poonamalle High Rd; Madhuravoyal",13.062896,80.166343,901.8116096
S11-143-2,"Periya Nolumbur, Vembuiliyamman Koil Street",Tenable,143,154,585,11,"Periya Nolumbur, Vembuiliyamman Koil Street, Ward 143, VALASARAVAKKAM, Chennai, Tamil Nadu, India",13.0713717,80.166143,UPHC109,11,146,Madhuravoyal,"Urban Primary Health Centre, Madhuravoyal, 285; Poonamalle High Rd; Madhuravoyal",13.062896,80.166343,1268.19356
S11-143-4,"Periya Nolumbur, Pada Salai Street",Tenable,143,106,416,11,"Periya Nolumbur, Pada Salai Street, Ward 143, VALASARAVAKKAM, Chennai, Tamil Nadu, India",13.0713717,80.166143,UPHC109,11,146,Madhuravoyal,"Urban Primary Health Centre, Madhuravoyal, 285; Poonamalle High Rd; Madhuravoyal",13.062896,80.166343,1268.19356
S11-143-7,"Periya Nolumbur , Vellalar Street",Tenable,143,33,112,11,"Periya Nolumbur , Vellalar Street, Ward 143, VALASARAVAKKAM, Chennai, Tamil Nadu, India",13.0713717,80.166143,UPHC109,11,146,Madhuravoyal,"Urban Primary Health Centre, Madhuravoyal, 285; Poonamalle High Rd; Madhuravoyal",13.062896,80.166343,1268.19356
S10-129-16,Dasarathapuram,Tenable,129,763,3064,10,"Dasarathapuram, Ward 129, KODAMBAKKAM, Chennai, Tamil Nadu, India",13.0580683,80.2028759,UPHC111,11,148,Nerkundram 2,"Urban Primary Health Centre, Nerkundram 2, Kamarajar Salai; Nerkundram Mettukuppam; Chennai  107",13.0532687,80.1970232,1133.998255
S10-129-17,Devaraj Nagar,Tenable,129,7,22,10,"Devaraj Nagar, Ward 129, KODAMBAKKAM, Chennai, Tamil Nadu, India",13.0592646,80.2028015,UPHC111,11,148,Nerkundram 2,"Urban Primary Health Centre, Nerkundram 2, Kamarajar Salai; Nerkundram Mettukuppam; Chennai  107",13.0532687,80.1970232,1268.124456
S11-155-30,"Ramapuram,2",Tenable,155,94,324,11,"Ramapuram,2, Ward 155, VALASARAVAKKAM, Chennai, Tamil Nadu, India",13.0266994,80.1831596,UPHC112,11,153,Sakthi Nagar,"Urban Primary Health Centre, Sakthi Nagar, No 2; Sakthi Ngr Main Rd; Sakthi Ngr; Porur; Chennai  116",13.0303184,80.1639289,2548.484261
S11-151-22,"Chinna Porur , Mariyamman Koil Street",Tenable,151,185,746,11,"Chinna Porur , Mariyamman Koil Street, Ward 151, VALASARAVAKKAM, Chennai, Tamil Nadu, India",13.0356028,80.1682048,UPHC112,11,153,Sakthi Nagar,"Urban Primary Health Centre, Sakthi Nagar, No 2; Sakthi Ngr Main Rd; Sakthi Ngr; Porur; Chennai  116",13.0303184,80.1639289,1207.01182
S11-152-25,"Anna Street,Kalaigar Street &Periyar Street",Tenable,152,176,761,11,"Anna Street,Kalaigar Street &Periyar Street, Ward 152, VALASARAVAKKAM, Chennai, Tamil Nadu, India",13.0399683,80.176981,UPHC112,11,153,Sakthi Nagar,"Urban Primary Health Centre, Sakthi Nagar, No 2; Sakthi Ngr Main Rd; Sakthi Ngr; Porur; Chennai  116",13.0303184,80.1639289,2576.031473
S11-146-13,Rajiv Gandhi Nagar,UnTenable,146,271,1149,11,"Rajiv Gandhi Nagar, Ward 146, VALASARAVAKKAM, Chennai, Tamil Nadu, India",13.0474483,80.1630924,UPHC112,11,153,Sakthi Nagar,"Urban Primary Health Centre, Sakthi Nagar, No 2; Sakthi Ngr Main Rd; Sakthi Ngr; Porur; Chennai  116",13.0303184,80.1639289,2371.49838
S13-170-1,12B Nagireddy thottam,un-Tenable,170,245,868,13,"12B Nagireddy thottam, Ward 170, ADYAR, Chennai, Tamil Nadu, India",13.0178292,80.2130789,UPHC113,11,154,Ramapuram,"Urban Primary Health Centre, Ramapuram, Temporary Address; Old 18E Busstand; Kambar Salai; Ramapuram; Chennai  89",13.0085024,80.210217,1292.064045
S12-158-21,Thulasingapuram,Tenable,158,275,1043,12,"Thulasingapuram, Ward 158, ALANDUR, Chennai, Tamil Nadu, India",13.016854,80.1844399,UPHC114,12,156,Mugalivakkam,"Urban Primary Health Centre, Mugalivakkam, Padasalai St; Opp Panchayat Office; Mugalivakkam; Chennai  125",13.0210118,80.167016,2796.257508
S12-158-23,Muthu Mariyamman Kovil Street,Tenable,158,60,221,12,"Muthu Mariyamman Kovil Street, Ward 158, ALANDUR, Chennai, Tamil Nadu, India",13.016854,80.1844399,UPHC114,12,156,Mugalivakkam,"Urban Primary Health Centre, Mugalivakkam, Padasalai St; Opp Panchayat Office; Mugalivakkam; Chennai  125",13.0210118,80.167016,2796.257508
S12-156-4,Bangala Thoppu,Tenable,156,86,334,12,"Bangala Thoppu, Ward 156, ALANDUR, Chennai, Tamil Nadu, India",13.0205459,80.1528016,UPHC114,12,156,Mugalivakkam,"Urban Primary Health Centre, Mugalivakkam, Padasalai St; Opp Panchayat Office; Mugalivakkam; Chennai  125",13.0210118,80.167016,1810.521463
S12-156-2,Kumari Nagar,Tenable,156,32,138,12,"Kumari Nagar, Ward 156, ALANDUR, Chennai, Tamil Nadu, India",13.0229692,80.1487023,UPHC114,12,156,Mugalivakkam,"Urban Primary Health Centre, Mugalivakkam, Padasalai St; Opp Panchayat Office; Mugalivakkam; Chennai  125",13.0210118,80.167016,2185.457442
S12-162-38,Pitchan Street,Tenable,162,88,325,12,"Pitchan Street, Ward 162, ALANDUR, Chennai, Tamil Nadu, India",12.9964455,80.1965194,UPHC115,12,160,Alandur,"Urban Primary Health Centre, Alandur, No12; Appavoo St; Alandur; Chennai  16",13.0017779,80.2030352,1167.787058
S12-162-37,Ali Khan Street,Tenable,162,32,128,12,"Ali Khan Street, Ward 162, ALANDUR, Chennai, Tamil Nadu, India",12.9965595,80.195833,UPHC115,12,160,Alandur,"Urban Primary Health Centre, Alandur, No12; Appavoo St; Alandur; Chennai  16",13.0017779,80.2030352,1219.243501
S12-161-32,Labhai Street,Tenable,161,65,266,12,"Labhai Street, Ward 161, ALANDUR, Chennai, Tamil Nadu, India",12.9974873,80.2006371,UPHC115,12,160,Alandur,"Urban Primary Health Centre, Alandur, No12; Appavoo St; Alandur; Chennai  16",13.0017779,80.2030352,636.8510798
S12-161-30,South Raja Street,Tenable,161,194,783,12,"South Raja Street, Ward 161, ALANDUR, Chennai, Tamil Nadu, India",12.9978364,80.1995215,UPHC115,12,160,Alandur,"Urban Primary Health Centre, Alandur, No12; Appavoo St; Alandur; Chennai  16",13.0017779,80.2030352,762.6996686
S12-162-36,Kannan Colony,Tenable,162,187,809,12,"Kannan Colony, Ward 162, ALANDUR, Chennai, Tamil Nadu, India",12.9928958,80.188204,UPHC116,12,162,Palavanthangal,"Urban Primary Health Centre, Palavanthangal, No2; New Colony; 2Nd Cross St; Palavanthangal Chennai  114",12.9881714,80.189436,1265.193879
S13-171-71,Railway Border First Street,un-Tenable,171,104,359,13,"Railway Border First Street, Ward 171, ADYAR, Chennai, Tamil Nadu, India",13.0294569,80.2257235,UPHC120,13,171,Kannammapet,"Urban Primary Health Centre, Kannammapet, No 1; Hospital Road; Chennai  17",13.0302194,80.2260312,101.7001714
S10-140-57,Paneerselvam Nagar,Tenable,140,261,1077,10,"Paneerselvam Nagar, Ward 140, KODAMBAKKAM, Chennai, Tamil Nadu, India",13.0297974,80.2230688,UPHC120,13,171,Kannammapet,"Urban Primary Health Centre, Kannammapet, No 1; Hospital Road; Chennai  17",13.0302194,80.2260312,664.4292653
S10-133-52,Nallan Kuppam,Tenable,133,394,1557,10,"Nallan Kuppam, Ward 133, KODAMBAKKAM, Chennai, Tamil Nadu, India",13.0337779,80.2201059,UPHC120,13,171,Kannammapet,"Urban Primary Health Centre, Kannammapet, No 1; Hospital Road; Chennai  17",13.0302194,80.2260312,936.6331454
S13-172-66,Perumal Koil Street I & II,Tenable,172,60,219,13,"Perumal Koil Street I & II, Ward 172, ADYAR, Chennai, Tamil Nadu, India",13.0143593,80.2464626,UPHC121,13,172,Kotturpuram,"Urban Primary Health Centre, Kotturpuram, No 23; Dhandayudhapani 2Nd St; Chennai  85",13.0229855,80.2401543,1611.251633
S13-171-82,Surya Nagar,Un-Tenable,171,1014,3185,13,"Surya Nagar, Ward 171, ADYAR, Chennai, Tamil Nadu, India",13.0168804,80.2391019,UPHC121,13,172,Kotturpuram,"Urban Primary Health Centre, Kotturpuram, No 23; Dhandayudhapani 2Nd St; Chennai  85",13.0229855,80.2401543,1166.527336
S13-173-9,Annai Sathya Nagar,Un-Tenable,173,515,1787,13,"Annai Sathya Nagar, Ward 173, ADYAR, Chennai, Tamil Nadu, India",13.0168784,80.2579194,UPHC122,13,173,Mandaveli,"Urban Primary Health Centre, Mandaveli, No 10; Velayutham Raja St; Mandaveli; Chennai  28",13.024026,80.2645587,1258.614763
S13-173-42,KVB Garden,Tenable,173,347,1418,13,"KVB Garden, Ward 173, ADYAR, Chennai, Tamil Nadu, India",13.01929,80.2605326,UPHC122,13,173,Mandaveli,"Urban Primary Health Centre, Mandaveli, No 10; Velayutham Raja St; Mandaveli; Chennai  28",13.024026,80.2645587,806.3154222
S13-173-73,Rajagramani Thottam,Tenable,173,180,611,13,"Rajagramani Thottam, Ward 173, ADYAR, Chennai, Tamil Nadu, India",13.0245914,80.267172,UPHC122,13,173,Mandaveli,"Urban Primary Health Centre, Mandaveli, No 10; Velayutham Raja St; Mandaveli; Chennai  28",13.024026,80.2645587,423.1837958
S9-124-49,Pillayar koil Thottam,Tenable,124,295,1209,9,"Pillayar koil Thottam, Ward 124, TEY NAM PET, Chennai, Tamil Nadu, India",13.0300848,80.2660201,UPHC122,13,173,Mandaveli,"Urban Primary Health Centre, Mandaveli, No 10; Velayutham Raja St; Mandaveli; Chennai  28",13.024026,80.2645587,811.567086
S13-180-83,Thanthai Periyar Nagar,Tenable,180,2303,8698,13,"Thanthai Periyar Nagar, Ward 180, ADYAR, Chennai, Tamil Nadu, India",12.980424,80.2378723,UPHC123,13,174,Old Siddha Clinic,"Urban Primary Health Centre, Old Siddha Clinic, Ttti Post;It Coridor; Taramani; Chennai  113",12.986279,80.2432487,1059.335444
S13-180-46,Mahathma Gandhi Nagar,Tenable,180,1979,7434,13,"Mahathma Gandhi Nagar, Ward 180, ADYAR, Chennai, Tamil Nadu, India",12.9828279,80.2418899,UPHC123,13,174,Old Siddha Clinic,"Urban Primary Health Centre, Old Siddha Clinic, Ttti Post;It Coridor; Taramani; Chennai  113",12.986279,80.2432487,629.7478553
S13-180-65,"Periyar Nagar , Kanagam",un-Tenable,180,181,680,13,"Periyar Nagar , Kanagam, Ward 180, ADYAR, Chennai, Tamil Nadu, India",12.9882038,80.2429354,UPHC123,13,174,Old Siddha Clinic,"Urban Primary Health Centre, Old Siddha Clinic, Ttti Post;It Coridor; Taramani; Chennai  113",12.986279,80.2432487,540.2617976
S13-180-40,Kanagam,Tenable,180,436,1674,13,"Kanagam, Ward 180, ADYAR, Chennai, Tamil Nadu, India",12.9921042,80.2425869,UPHC123,13,174,Old Siddha Clinic,"Urban Primary Health Centre, Old Siddha Clinic, Ttti Post;It Coridor; Taramani; Chennai  113",12.986279,80.2432487,1045.366703
S13-180-55,"Nehru Street , Kanagam",Tenable,180,182,634,13,"Nehru Street , Kanagam, Ward 180, ADYAR, Chennai, Tamil Nadu, India",12.9935389,80.24253,UPHC123,13,174,Old Siddha Clinic,"Urban Primary Health Centre, Old Siddha Clinic, Ttti Post;It Coridor; Taramani; Chennai  113",12.986279,80.2432487,1134.453571
S13-176-78,Sasthri Nagar,Tenable,176,537,2042,13,"Sasthri Nagar, Ward 176, ADYAR, Chennai, Tamil Nadu, India",12.9991491,80.2590739,UPHC124,13,176,Adyar,"Urban Primary Health Centre, Adyar, No1; 1St Avenue Besant Nagar; Chennai  90",13.0002927,80.2666982,1003.935461
S13-176-19,"Besant Avenue, Adyar Huts",Tenable,176,110,362,13,"Besant Avenue, Adyar Huts, Ward 176, ADYAR, Chennai, Tamil Nadu, India",13.0080362,80.2649087,UPHC124,13,176,Adyar,"Urban Primary Health Centre, Adyar, No1; 1St Avenue Besant Nagar; Chennai  90",13.0002927,80.2666982,1293.075225
S13-177-26,"Ex,Serviceman Colony",Tenable,177,109,436,13,"Ex,Serviceman Colony, Ward 177, ADYAR, Chennai, Tamil Nadu, India",12.9916105,80.2065465,UPHC125,13,177,Sastri Nagar,"Urban Primary Health Centre, Sastri Nagar, No 4; Sasthri Nagar; Adambakkam Rd; Chennai  88",12.9888861,80.2062833,346.2946852
S13-177-31,Indira Gandhi Nagar,Tenable,177,203,766,13,"Indira Gandhi Nagar, Ward 177, ADYAR, Chennai, Tamil Nadu, India",12.9940566,80.2094732,UPHC125,13,177,Sastri Nagar,"Urban Primary Health Centre, Sastri Nagar, No 4; Sasthri Nagar; Adambakkam Rd; Chennai  88",12.9888861,80.2062833,869.1906489
S12-165-44,Sundaramurthy Street,Un-tenable,165,200,697,12,"Sundaramurthy Street, Ward 165, ALANDUR, Chennai, Tamil Nadu, India",12.9838541,80.1966723,UPHC126,13,177,Adambakkam 2,"Urban Primary Health Centre, Adambakkam 2, 153; TNHB 3Rd St; Adambakkam; Chennai  88",12.9874863,80.2045919,1292.563843
S13-177-4,Ambedkar Nagar,Tenable,177,3344,13437,13,"Ambedkar Nagar, Ward 177, ADYAR, Chennai, Tamil Nadu, India",12.984479,80.2047014,UPHC126,13,177,Adambakkam 2,"Urban Primary Health Centre, Adambakkam 2, 153; TNHB 3Rd St; Adambakkam; Chennai  88",12.9874863,80.2045919,463.1008349
S13-177-16,ASK Nagar,Tenable,177,149,489,13,"ASK Nagar, Ward 177, ADYAR, Chennai, Tamil Nadu, India",12.984479,80.2047014,UPHC126,13,177,Adambakkam 2,"Urban Primary Health Centre, Adambakkam 2, 153; TNHB 3Rd St; Adambakkam; Chennai  88",12.9874863,80.2045919,463.1008349
S13-177-37,Kakkan Nagar,Tenable,177,410,1499,13,"Kakkan Nagar, Ward 177, ADYAR, Chennai, Tamil Nadu, India",12.984479,80.2047014,UPHC126,13,177,Adambakkam 2,"Urban Primary Health Centre, Adambakkam 2, 153; TNHB 3Rd St; Adambakkam; Chennai  88",12.9874863,80.2045919,463.1008349
S13-177-77,Sasi Nagar,Tenable,177,256,932,13,"Sasi Nagar, Ward 177, ADYAR, Chennai, Tamil Nadu, India",12.984479,80.2047014,UPHC126,13,177,Adambakkam 2,"Urban Primary Health Centre, Adambakkam 2, 153; TNHB 3Rd St; Adambakkam; Chennai  88",12.9874863,80.2045919,463.1008349
S14-184-18,"Anjugam Ammaiyar Nagar, Kallukuttai Part VIII",Tenable,184,724,2619,14,"Anjugam Ammaiyar Nagar, Kallukuttai Part VIII, Ward 184, PER UNGUDI, Chennai, Tamil Nadu, India",12.9685738,80.2317828,UPHC127,13,179,Velachery,"Urban Primary Health Centre, Velachery, No2; Sevanagar; Gandhi Road; VelaChry; Chennai  42",12.9862628,80.229887,2672.192297
S14-184-17,"Nethaji Nagar,Kallukuttai Part XI",Tenable,184,88,319,14,"Nethaji Nagar,Kallukuttai Part XI, Ward 184, PER UNGUDI, Chennai, Tamil Nadu, India",12.9793768,80.2352681,UPHC127,13,179,Velachery,"Urban Primary Health Centre, Velachery, No2; Sevanagar; Gandhi Road; VelaChry; Chennai  42",12.9862628,80.229887,1193.167528
S13-179-58,New Colony,Tenable,179,60,200,13,"New Colony, Ward 179, ADYAR, Chennai, Tamil Nadu, India",12.9835275,80.2313566,UPHC127,13,179,Velachery,"Urban Primary Health Centre, Velachery, No2; Sevanagar; Gandhi Road; VelaChry; Chennai  42",12.9862628,80.229887,468.3493283
S13-178-34,Jeganathapuram,Un-Tenable,178,616,2261,13,"Jeganathapuram, Ward 178, ADYAR, Chennai, Tamil Nadu, India",12.9852406,80.2186003,UPHC127,13,179,Velachery,"Urban Primary Health Centre, Velachery, No2; Sevanagar; Gandhi Road; VelaChry; Chennai  42",12.9862628,80.229887,1583.144077
S13-178-86,Throwpathy amman koil street,Un-Tenable,178,517,1949,13,"Throwpathy amman koil street, Ward 178, ADYAR, Chennai, Tamil Nadu, India",12.9852406,80.2186003,UPHC127,13,179,Velachery,"Urban Primary Health Centre, Velachery, No2; Sevanagar; Gandhi Road; VelaChry; Chennai  42",12.9862628,80.229887,1583.144077
S13-180-33,Jayanthi Periyar Nagar MUDP,Tenable,180,686,2509,13,"Jayanthi Periyar Nagar MUDP, Ward 180, ADYAR, Chennai, Tamil Nadu, India",12.9892826,80.2526927,UPHC128,13,180,SRKV,"Urban Primary Health Centre, SRKV, Sri Ramakrishna Vivekananda 72/144; Lb Raod; Opp Thyagaraja Theatre Tiruvanmiyur; Chennai  41",12.9897984,80.2560054,565.6512105
S13-180-89,Valluvar Nagar,Tenable,180,166,599,13,"Valluvar Nagar, Ward 180, ADYAR, Chennai, Tamil Nadu, India",12.9900466,80.2540865,UPHC128,13,180,SRKV,"Urban Primary Health Centre, SRKV, Sri Ramakrishna Vivekananda 72/144; Lb Raod; Opp Thyagaraja Theatre Tiruvanmiyur; Chennai  41",12.9897984,80.2560054,429.1954129
S13-181-7,Annastreet,Tenable,181,228,834,13,"Annastreet, Ward 181, ADYAR, Chennai, Tamil Nadu, India",12.9917157,80.2627517,UPHC128,13,180,SRKV,"Urban Primary Health Centre, SRKV, Sri Ramakrishna Vivekananda 72/144; Lb Raod; Opp Thyagaraja Theatre Tiruvanmiyur; Chennai  41",12.9897984,80.2560054,986.5636007
S13-181-44,Lakshmipuram,Tenable,181,785,2931,13,"Lakshmipuram, Ward 181, ADYAR, Chennai, Tamil Nadu, India",12.9924959,80.2624489,UPHC128,13,180,SRKV,"Urban Primary Health Centre, SRKV, Sri Ramakrishna Vivekananda 72/144; Lb Raod; Opp Thyagaraja Theatre Tiruvanmiyur; Chennai  41",12.9897984,80.2560054,1043.918644
S13-181-29,Gangai Amman Koil Street,Tenable,181,115,429,13,"Gangai Amman Koil Street, Ward 181, ADYAR, Chennai, Tamil Nadu, India",12.993092,80.2611634,UPHC128,13,180,SRKV,"Urban Primary Health Centre, SRKV, Sri Ramakrishna Vivekananda 72/144; Lb Raod; Opp Thyagaraja Theatre Tiruvanmiyur; Chennai  41",12.9897984,80.2560054,940.2284574
